###############################################
##         ENVERUS                           ##
##         ESS - Open Hole                   ##
##         PERMIAN / MIDLAND                 ##
##         Nov 04 2023  V4.0                 ##
##         42-383-38290-90-00                ##
###############################################
## Copyright 2017-2023  ENVERUS.  All Rights Reserved. 
## Confidential - Property of ENVERUS, use governed by terms and 
## conditions found within the existing Information Services Subscription Agreement 
## (as may be amended, the “ISSA”) between Customer and ENVERUS. 
## 
~VERSION INFORMATION
# MNEM.UNIT                               DATA : DESCRIPTION OF MNEMONIC
#-----.-----     ----------------------------- : -----------------------------
VERS.                                     2.00 : CWLS LOG ASCII STANDARD - VERSION 2.00
WRAP.                                       NO : MULTIPLE LINES PER DEPTH STEP
VEND.                                  ENVERUS : VENDOR
TYPE.                          ESS - OPEN HOLE : ENVERUS ESSENTIAL CURVES – ACCESSIBLE THROUGH ENVERUS PRISM(TM)
DOC.                                  51094660 : ENVERUS HEADER RAW DOCUMENT ID
#___________________________________________________________________________________________________ 
~WELL INFORMATION 
# m1FPRISIcKBcMzk40yd34Gtphn5JoOH7jww50mYGKLfe2DZfACMCifCPsuzsX4y0yEiREccSdbTgxIOvDda2cA== 
# MNEM.UNIT                                              DATA : DESCRIPTION OF MNEMONIC 
#-----.-----                    ----------------------------- : ----------------------------- 
CNTY.                                                  REAGAN : COUNTY 
STATE.                                                  TEXAS : STATE 
CNTRY.                                                    USA : COUNTRY 
API.                                             42-383-38290 : API (10 Digit) 
API_14.                                    42-383-38290-90-00 : API (14 Digits) 
API_14_std.                                 42-383-38290-9000 : API (14 Digits Standard) 
UWI.                                           42383382909000 : UNIQUE WELL ID 
WELL.                                    UNIVERSITY 43-14 #6H : WELL NAME
STRT.FT                                                 900.0 : START DEPTH
STOP.FT                                                7359.0 : STOP DEPTH
STEP.FT                                                   0.5 : STEP BETWEEN DEPTHS
NULL.                                                 -999.25 : NULL VALUE
COMP.                       DEVON ENERGY PRODUCTION CO., L.P. : COMPANY 
FLD.                                           LIN (WOLFCAMP) : FIELD 
LOC.                                       201 FSL & 1115 FWL : LOCATION 
SRVC.                                             BAKER ATLAS : SERVICE COMPANY 
DATE.                                             25-AUG-2013 : LOG DATE 
PREV_APII.                                     42383382900000 : API NUMBER 
PREV_UWI.                                      42383382900000 : UNIQUE WELL ID
#___________________________________________________________________________________________________ 
~PARAMETER INFORMATION 
# MNEM.UNIT                                              DATA : DESCRIPTION OF MNEMONIC 
#-----.-----                    ----------------------------- : ----------------------------- 
HIDE.                                  COMPENSATED Z-DENSILOG : HEADER IDENTIFER 
HID1.                                 COMPENSATED NEUTRON LOG : HEADER IDENTIFER 
HID2.                                      DIGITAL SPECTRALOG : HEADER IDENTIFER 
HID3.                                           GAMMA RAY LOG : HEADER IDENTIFER 
CLAB.                                                  COUNTY : COUNTY LABEL (COMMENTS) 
SLAB.                                                   STATE : STATE LABEL (COMMENTS) 
FILE.                                                 MD10587 : FILE NUMBER 
CMT2.                                             FINAL PRINT : COMMENT 2 
FL1.                                          SEC.14, BLK. 43 : FIELD LOCATION 1 
FL3.                                  UNIVERSITY LAND SURVEY. : FIELD LOCATION 3 
OS2.                                                  HDIL/GR : OTHER SERVICES LINE 2 
OS3.                                                  XMAC/GR : OTHER SERVICES LINE 3 
OS4.                                                      BHP : OTHER SERVICES LINE 4 
PDAT.                                                    G.L. : PERMANENT DATUM 
EPD.FT                                                   2678 : ELEVATION OF PERM. DATUM 
LMF.                                                     K.B. : LOG MEASURED FROM 
APD.FT                                                     25 : ABOVE PERMANENT DATUM 
DMF.                                            KELLY BUSHING : DRILLING MEASURED FROM 
EKB.FT                                                   2703 : ELEVATION OF KELLY BUSHING 
EDF.FT                                                   2702 : ELEVATION OF DERRICK FLOOR 
EGL.FT                                                   2678 : ELEVATION OF GROUND LEVEL 
RUN.                                                        1 : RUN NUMBER 
TRIP.                                                       1 : TRIP NUMBER 
SON.                                                   636509 : SERVICE ORDER NUMBER 
TDD.FT                                                   7363 : TOTAL DEPTH - DRILLER 
TDL.FT                                                   7363 : TOTAL DEPTH - LOGGER 
BLI.FT                                                   7273 : BOTTOM LOG INTERVAL 
TLI.FT                                                    924 : TOP LOG INTERVAL 
CSIZ.IN                                                 9.625 : CASING SIZE 
CBDR.FT                                                   927 : CASING BOTTOM - DRILLER 
CBLO.FT                                                   924 : CASING BOTTOM - LOGGER 
BS.IN                                                    8.75 : BIT SIZE 
DFT.                                            OIL BASED MUD : DRILLING FLUID TYPE 
DFD.LB/G                                                    9 : DRILLING FLUID DENSITY 
DFV.S                                                      20 : DRILLING FLUID VISCOSITY 
MSS.                                                      OBM : MUD SAMPLE SOURCE 
MFSS.                                                      -- : MUD FILTRATE SAMPLE SOURCE 
MCSS.                                                      -- : MUD CAKE SAMPLE SOURCE 
TSC.                                                  7 HOURS : TIME SINCE CIRCULATION 
MRT.DEGF                                                  152 : MAXIMUM RECORDED TEMPERATURE 
LUN.                                                  HL-6713 : LOGGING UNIT NUMBER 
LUL.                                              MIDLAND, TX : LOGGING UNIT LOCATION 
ENGI.                                               O. ROBLES : ENGINEERS NAME 
WITN.                                                W. LUTKE : WITNESS NAME 
TSTR.                                           ZDL/CN/DSL/GR : TITLE SERVICE MNEMONIC 
TSTG.                                                      NA : TITLE SERVICE MNEMONIC 
STUS.                                                   FINAL : STATUS 
LCNM.                                             BAKER ATLAS : LOGGING COMPANY NAME 
LCC.                                                      150 : LOGGING COMPANY CODE 
OPMD.                                                 OH.WIRE : OPERATION MODE 
PANA.                                               O. ROBLES : PROCESSING ANALYST 
PCON.                                             BAKER ATLAS : PROCESSING CONTRACTOR
#___________________________________________________________________________________________________ 
~CURVE INFORMATION 
# MNEM.UNIT           : CURVE DESCRIPTION 
#-----.-----          : ----------------------------- 
 DEPT.FT               : MEASURED DEPTH 
 CALI.IN               : CALIPER (CALX - CALIPER FROM X-AXIS OF XY CALIPER(S)) 
 GR.API                : GAMMA RAY (GAMMA RAY) 
 SGR.API               : SPECTRAL GAMMA RAY (KTH - STRIPPED POTASSIUM-THORIUM) 
 SGR_TH_PPM.PPM        : SPECTRAL GAMMA RAY - THORIUM IN PPM (TH - THORIUM CONCENTRATION) 
 SGR_U_PPM.PPM         : SPECTRAL GAMMA RAY - URANIUM IN PPM (U - URANIUM CONTENT) 
 SP.MV                 : SPONTANEOUS POTENTIAL (SPDH - SPONTANEOUS POTENTIAL PROCESSED IN COMMON REMOTE) 
 DT.US/FT              : SONIC DELTA TRANSIT TIME (DT24 - SLOWNESS OVER 24-INCH INTERVAL) 
 PE.B/E                : PHOTOELECTRIC EFFECT/FACTOR (PHOTO ELECTRIC CROSS-SECTION) 
 RESS_10M2.OHMM        : RESISTIVITY SHALLOW - 10 IN 2 FT VERTICAL (M2R1 - VERTICAL 2-FOOT RESOLUTION MATCHED RESISTIVITY 10-INCH DOI) 
 RESS_20M2.OHMM        : RESISTIVITY SHALLOW - 20 IN 2 FT VERTICAL (M2R2 - VERTICAL 2-FOOT RESOLUTION MATCHED RESISTIVITY 20-INCH DOI) 
 RESM_30M2.OHMM        : RESISTIVITY MEDIUM - 30 IN 2 FT VERTICAL (M2R3 - VERTICAL 2-FOOT RESOLUTION MATCHED RESISTIVITY 30-INCH DOI) 
 RESD_60M2.OHMM        : RESISTIVITY DEEP - 60 IN 2 FT VERTICAL (M2R6 - VERTICAL 2-FOOT RESOLUTION MATCHED RESISTIVITY 60-INCH DOI) 
 RESD_90M2.OHMM        : RESISTIVITY DEEP - 90 IN 2 FT VERTICAL (M2R9 - VERTICAL 2-FOOT RESOLUTION MATCHED RESISTIVITY 90-INCH DOI) 
 RESD_120M2.OHMM       : RESISTIVITY DEEP - 120 IN 2 FT VERTICAL (M2RX - VERTICAL 2-FOOT RESOLUTION MATCHED RESISTIVITY 120-INCH DOI) 
 DPHI.V/V              : DENSITY POROSITY (PORZC - CORRECTED POROSITY) 
 NPHI.V/V              : NEUTRON POROSITY (CNC - BOREHOLE SIZE CORRECTED COMPENSATED NEUTRON POROSITY) 
 SPHI.V/V              : SONIC POROSITY (PORA - ACOUSTIC POROSITY) 
 DRHO.G/CC             : DENSITY CORRECTION (ZCOR - DENSITY CORRECTION) 
 RHOB.G/CC             : BULK DENSITY (ZDNC - BOREHOLE SIZE/MUD WEIGHT CORRECTED DENSITY) 
 TEMP.DEGF             : TEMPERATURE (WTBH - TEMPERATURE OF BOREHOLE) 
 #___________________________________________________________________________________________________ 
~A         DEPT           CALI             GR            SGR     SGR_TH_PPM      SGR_U_PPM             SP             DT             PE      RESS_10M2      RESS_20M2      RESM_30M2      RESD_60M2      RESD_90M2     RESD_120M2           DPHI           NPHI           SPHI           DRHO           RHOB           TEMP
# ...
         6438.0          8.905        180.805        111.808         13.803          9.030        -61.461         87.900         3.1430         21.342         19.437         18.793         20.007         20.856         23.066        0.14052        0.26301        0.28300        0.00400         2.4700        146.829
         6438.5          8.901        171.206        105.607         13.718          8.867        -61.488         86.971         2.9260         23.802         21.657         20.902         22.353         23.331         25.890        0.13471        0.26769        0.27648        0.00900         2.4800        147.102
         6439.0          8.900        151.911         91.435         12.876          8.720        -60.859         85.887         2.8690         28.639         25.963         24.989         26.975         28.229         31.459        0.12896        0.26502        0.26887        0.01100         2.4890        147.212
         6439.5          8.905        139.940         82.399         12.124          8.682        -60.680         85.272         3.0250         37.620         33.872         32.476         35.680         37.570         42.036        0.13199        0.25708        0.26455        0.00700         2.4840        147.252
         6440.0          8.915        146.540         81.514         11.119          9.472        -60.896         85.419         3.2060         45.105         40.163         38.635         42.974         45.265         50.626        0.14152        0.25742        0.26558        0.00200         2.4680        147.199
         6440.5          8.916        165.725         78.348          8.614         11.696        -60.684         85.803         3.2800         39.379         35.828         35.098         38.533         40.209         44.979        0.14682        0.26952        0.26828        0.00200         2.4590        147.296
         6441.0          8.904        182.385         76.249          6.951         13.315        -60.491         85.243         3.2970         31.612         29.948         29.733         32.187         33.703         37.650        0.14339        0.27943        0.26434        0.00700         2.4650        147.207
         6441.5          8.887        178.795         74.113          6.712         13.194        -60.996         82.926         3.4140         31.494         30.652         30.690         33.268         34.841         38.852        0.12851        0.27966        0.24807        0.01200         2.4900        146.482
         6442.0          8.871        151.827         65.027          6.598         11.755        -60.077         79.269         3.7510         35.742         35.720         35.896         38.744         40.471         45.014        0.09780        0.26738        0.22240        0.01900         2.5430        145.766
         6442.5          8.861        124.464         55.469          6.685         10.271        -57.728         75.962         4.0370         33.836         34.342         34.506         37.003         38.714         42.891        0.06448        0.24595        0.19917        0.02600         2.6000        145.733
         6443.0          8.866        121.110         55.040          6.892          9.919        -57.689         74.886         3.7830         25.893         26.293         26.373         28.106         29.553         32.585        0.06110        0.23102        0.19161        0.02300         2.6060        146.069
         6443.5          8.885        136.665         67.133          7.801          9.781        -61.564         76.593         3.2560         21.317         21.454         21.455         22.724         23.947         26.271        0.09070        0.23726        0.20360        0.01300         2.5550        146.097
         6444.0          8.907        152.723         83.309          9.118          9.336        -66.052         79.880         2.9150         21.013         20.935         20.863         21.967         23.138         25.260        0.11988        0.25530        0.22668        0.00800         2.5050        145.867
         6444.5          8.923        161.154         92.064          9.687          9.038        -66.762         82.573         2.8560         22.289         21.965         21.791         22.849         24.026         26.107        0.12928        0.25700        0.24560        0.01100         2.4890        145.975
         6445.0          8.926        158.925         92.337          9.885          8.770        -63.588         83.117         2.9760         22.315         21.694         21.419         22.377         23.497         25.418        0.12006        0.24478        0.24942        0.01400         2.5050        146.692
         6445.5          8.914        143.189         87.001         10.408          7.716        -60.518         81.538         3.2170         22.574         21.657         21.293         22.188         23.243         25.042        0.09864        0.24171        0.23833        0.01500         2.5410        147.457
         6446.0          8.898        121.574         74.447         10.320          6.821        -59.123         79.322         3.5570         24.935         23.711         23.205         24.220         25.316         27.184        0.07575        0.24296        0.22276        0.01500         2.5800        147.694
         6446.5          8.894        108.675         63.959          9.704          6.758        -56.793         77.999         3.6790         27.508         26.124         25.498         26.690         27.850         29.827        0.06847        0.23390        0.21347        0.01300         2.5930        147.489
         6447.0          8.905        109.525         62.824          9.346          6.904        -54.082         77.830         3.4290         27.464         26.120         25.540         26.718         27.785         29.696        0.08095        0.22396        0.21229        0.00900         2.5720        147.133
         6447.5          8.914        115.713         63.903          8.866          7.173        -54.612         77.980         3.1760         26.888         25.559         25.089         26.233         27.211         29.045        0.09739        0.21889        0.21334        0.00600         2.5430        147.006
         6448.0          8.909        117.487         61.826          8.313          7.525        -59.085         77.586         3.0980         28.322         26.779         26.421         27.725         28.731         30.652        0.10485        0.20994        0.21058        0.00700         2.5310        147.197
         6448.5          8.905        113.540         57.326          7.932          7.844        -63.684         76.860         3.0480         30.146         28.954         28.833         30.408         31.461         33.577        0.10247        0.20048        0.20548        0.00800         2.5350        147.278
         6449.0          8.914        111.160         54.422          7.763          8.105        -64.776         76.832         2.9560         29.455         29.711         29.998         31.611         32.712         34.943        0.09643        0.20327        0.20528        0.01000         2.5450        146.728
         6449.5          8.917        118.371         57.509          8.288          8.465        -63.712         78.170         2.9280         24.777         26.523         27.234         28.799         29.885         31.963        0.09542        0.21971        0.21468        0.01400         2.5470        146.077
         6450.0          8.903        130.720         66.334          9.781          8.609        -63.224         80.381         2.9360         18.712         20.956         21.870         23.087         24.192         25.914        0.10234        0.23871        0.23020        0.01500         2.5350        145.991
         6450.5          8.887        136.640         72.772         10.977          8.424        -62.973         82.281         2.8720         15.354         17.539         18.518         19.561         20.627         22.143        0.11069        0.24918        0.24354        0.01500         2.5210        146.406
