###############################################
##         ENVERUS                           ##
##         ESS - Open Hole                   ##
##         PERMIAN / MIDLAND                 ##
##         Nov 03 2023  V4.0                 ##
##         42-235-34485-90-00                ##
###############################################
## Copyright 2017-2023  ENVERUS.  All Rights Reserved. 
## Confidential - Property of ENVERUS, use governed by terms and 
## conditions found within the existing Information Services Subscription Agreement 
## (as may be amended, the “ISSA”) between Customer and ENVERUS. 
## 
~VERSION INFORMATION
# MNEM.UNIT                               DATA : DESCRIPTION OF MNEMONIC
#-----.-----     ----------------------------- : -----------------------------
VERS.                                     2.00 : CWLS LOG ASCII STANDARD - VERSION 2.00
WRAP.                                       NO : MULTIPLE LINES PER DEPTH STEP
VEND.                                  ENVERUS : VENDOR
TYPE.                          ESS - OPEN HOLE : ENVERUS ESSENTIAL CURVES – ACCESSIBLE THROUGH ENVERUS PRISM(TM)
DOC.                                  51094636 : ENVERUS HEADER RAW DOCUMENT ID
#___________________________________________________________________________________________________ 
~WELL INFORMATION 
# FMikr3+JyUztgncWDJlJj4UAVtjFs/xFdFTkOn/rCNZKdsWfgftU4ooQRZEXdd26HCoruynA4NvJdeWU6aB/BQ== 
# MNEM.UNIT                                              DATA : DESCRIPTION OF MNEMONIC 
#-----.-----                    ----------------------------- : ----------------------------- 
CNTY.                                                   IRION : COUNTY 
STATE.                                                  TEXAS : STATE 
CNTRY.                                                    USA : COUNTRY 
API.                                             42-235-34485 : API (10 Digit) 
API_14.                                    42-235-34485-90-00 : API (14 Digits) 
API_14_std.                                 42-235-34485-9000 : API (14 Digits Standard) 
UWI.                                           42235344859000 : UNIQUE WELL ID 
WELL.                                    UNIVERSITY 40-13 #1H : WELL NAME
STRT.FT                                                 187.0 : START DEPTH
STOP.FT                                                7212.0 : STOP DEPTH
STEP.FT                                                   0.5 : STEP BETWEEN DEPTHS
NULL.                                                 -999.25 : NULL VALUE
PREV_UWI.                                        42-235-34485 : API WELLHOLE NUMBER 
COMP.                                     EOG RESOURCES, INC. : COMPANY NAME 
COUN.                                                   IRION : COUNTY 
DAT2.                                                   02000 : LOGGING DATE 2 
DAT3.                                                   02000 : LOGGING DATE 3 
DAT4.                                                   02000 : LOGGING DATE 4 
DATE.                                              2/-1/-2010 : LOGGING DATE 
DFT.                                                    FRESH : DRILLING FLUID TYPE 
DMF.                                                       KB : DRILLING MEASURED 
ENGI.                                              R. ATKISON : ENGINEER 1 NAME 
LOC.                                        660 FNL & 660 FEL : FIELD LOCATION 
FL1.                                        660 FNL & 660 FEL : FIELD LOCATION LINE 1 
FL2.                                        SECT.13, BLOCK 40 : FIELD LOCATION LINE 2 
FLD.                                            LIN  WOLFCAMP : FIELD NAME 
HDAT.                                                   02000 : DATUM 
LMF.                                                       KB : LOG MEASURED FROM 
LUL.                                                   ODESSA : LOGGING UNIT LOCATION 
MCSS.                                                    MEAS : MUD CAKE SAMPLE SOURCE 
MFSS.                                                    MEAS : MUD FILTRATE SAMPLE SOURCE 
MSS.                                                  MUD PIT : SOURCE OF MUD SAMPLE 
OS1.                                             CSNG-DSN-SDL : OTHER SERVICES LINE 1 
OS2.                                                 DLL-MSFL : OTHER SERVICES LINE 2 
PDAT.                                                      GL : PERMANENT DATUM 
R1.             ANNULAR HOLE VOLUME CALCULATED FOR 5.5 INCH CASING. : REMARKS LINE 1 
R2.             LOGGING SCALES AND INTERVALS AS PER CUSTOMER REQUEST. : REMARKS LINE 2 
R3.             GR/CSNG/DSNT/SDLT/WSTT/DLLT/MGRD RAN IN COMBINATION AS SHOWN : REMARKS LINE 3 
RANG.                                                     N/A : RANGE 
RDT2.                                                   02000 : CASING DATE 2 
RDT3.                                                   02000 : CASING DATE 3 
RDT4.                                                   02000 : CASING DATE 4 
RDT5.                                                   02000 : CASING DATE 5 
SECT.                                                     N/A : SECTION 
SON.                                                  7176848 : SERVICE/TICKET ORDER NUMBER 
PROV.                                                   TEXAS : STATE 
TOWN.                                                     N/A : TOWNSHIP 
WITN.                                              GREG PALKO : WITNESS 1 NAME
#___________________________________________________________________________________________________ 
~PARAMETER INFORMATION 
# MNEM.UNIT                                              DATA : DESCRIPTION OF MNEMONIC 
#-----.-----                    ----------------------------- : -----------------------------
#___________________________________________________________________________________________________ 
~CURVE INFORMATION 
# MNEM.UNIT           : CURVE DESCRIPTION 
#-----.-----          : ----------------------------- 
 DEPT.FT               : MEASURED DEPTH 
 DT__E.US/FT           : SONIC DELTA TRANSIT TIME (DTC - DELTA-T COMPRESSIONAL - WAVE SONIC) 
 DTS__E.US/FT          : SHEAR SONIC TRAVEL TIME (SINGLE DIPOLE SONIC - WAVE SONIC) 
 SPHI_LS__E.V/V        : SONIC POROSITY - LIMESTONE (SPHIDTC - SONIC POROSITY MTX=47.6 (DTC)) 
 TENS__E.LBS           : CABLE TENSION (TENSION) 
 #___________________________________________________________________________________________________ 
~A         DEPT          DT__E         DTS__E     SPHI_LS__E        TENS__E
# ...
         6547.0         88.418      146.05400        0.28870      5558.5645
         6547.5         87.238      145.11050        0.28030      5532.2012
         6548.0         85.130      143.25890        0.26540      5455.6943
         6548.5         83.848      141.64040        0.25630      5505.0933
         6549.0         82.627      138.82370        0.24770      5514.1411
         6549.5         80.419      136.11250        0.23210      5507.5864
         6550.0         78.818      135.33450        0.22080      5485.4766
         6550.5         78.958      135.48040        0.22180      5515.0776
         6551.0         80.149      136.25100        0.23020      5492.3350
         6551.5         81.320      136.88650        0.23850      5530.8813
         6552.0         81.677      137.17840        0.24100      5538.8120
         6552.5         80.863      136.96440        0.23520      5525.4668
         6553.0         79.967      136.49020        0.22890      5513.8809
         6553.5         80.448      136.36710        0.23230      5469.2314
         6554.0         81.882      137.27820        0.24240      5493.5537
         6554.5         83.215      138.82380        0.25190      5488.1499
         6555.0         84.190      140.71900        0.25880      5490.2939
         6555.5         84.783      141.20810        0.26300      5454.1831
         6556.0         85.502      141.66840        0.26800      5462.6108
         6556.5         86.858      142.88990        0.27760      5505.0479
         6557.0         88.660      144.46410        0.29040      5512.6064
         6557.5         89.305      145.23650        0.29490      5451.5996
         6558.0         89.022      145.20070        0.29290      5400.4761
         6558.5         88.645      144.58450        0.29030      5323.9131
         6559.0         87.342      143.91380        0.28110      5336.7954
         6559.5         85.830      142.73270        0.27040      5396.6182
         6560.0         85.323      141.11230        0.26680      5429.0161
         6560.5         84.159      139.85790        0.25860      5360.8345
         6561.0         81.003      137.89510        0.23620      5370.5586
         6561.5         78.679      135.22730        0.21980      5464.2344
         6562.0         77.567      133.61510        0.21190      5562.7275
         6562.5         76.715      133.52970        0.20590      5493.9819
         6563.0         76.832      134.66940        0.20670      5391.5635
         6563.5         78.578      136.22250        0.21910      5412.5688
         6564.0         81.106      137.83020        0.23700      5436.6309
         6564.5         82.461      138.45810        0.24650      5471.4878
         6565.0         82.312      138.91690        0.24550      5392.3086
         6565.5         82.044      140.02530        0.24360      5368.4722
         6566.0         83.005      141.76250        0.25040      5375.1504
         6566.5         84.113      142.84610        0.25820      5387.7168
         6567.0         83.979      142.53500        0.25730      5387.8179
         6567.5         84.163      143.18880        0.25860      5354.1562
         6568.0         85.355      144.97550        0.26700      5242.8037
         6568.5         86.284      144.87680        0.27360      5237.6367
         6569.0         86.257      145.57550        0.27340      5345.2905
         6569.5         86.026      145.49800        0.27180      5366.1816
         6570.0         85.596      145.11470        0.26870      5233.0796
         6570.5         84.801      143.52950        0.26310      5192.4233
         6571.0         84.348      142.01460        0.25990      5317.8662
         6571.5         83.666      141.76190        0.25510      5414.8359
         6572.0         82.851      141.30490        0.24930      5366.6104
         6572.5         82.219      139.37740        0.24480      5343.3271
         6573.0         81.462      137.47340        0.23950      5395.2188
         6573.5         80.395      136.15420        0.23190      5436.2803
         6574.0         79.427      135.14770        0.22510      5368.1108
         6574.5         79.100      134.75090        0.22280      5298.5083
         6575.0         79.700      135.26260        0.22700      5367.3330
         6575.5         81.344      136.13810        0.23860      5304.5659
         6576.0         82.580      136.71080        0.24740      5231.4448
         6576.5         82.170      137.12760        0.24450      5228.2974
         6577.0         80.661      136.62900        0.23380      5231.2969
         6577.5         78.700      134.31600        0.21990      5150.0190
         6578.0         76.610      131.67460        0.20520      5195.2437
         6578.5         75.401      130.76400        0.19660      5281.9370
         6579.0         75.850      131.62290        0.19980      5314.8774
         6579.5         77.448      133.44710        0.21110      5255.9683
         6580.0         79.958      135.74870        0.22880      5256.7471
         6580.5         83.653      139.82120        0.25500      5392.6919
         6581.0         86.629      145.70830        0.27600      5444.8091
         6581.5         88.500      150.11270        0.28930      5343.7446
         6582.0         90.338      152.27670        0.30230      5236.2271
         6582.5         91.580      153.16950        0.31100      5295.5864
         6583.0         91.379      153.61470        0.30960      5242.2056
         6583.5         89.649      152.20290        0.29740      5259.9614
         6584.0         87.555      148.56720        0.28260      5322.9424
         6584.5         86.125      145.02000        0.27250      5285.8965
         6585.0         84.063      142.33390        0.25790      5176.6084
         6585.5         80.551      139.63290        0.23300      5230.8804
         6586.0         77.519      135.75430        0.21160      5252.0322
         6586.5         74.951      130.73540        0.19340      5248.3208
         6587.0         71.342      125.26810        0.16790      5197.1396
         6587.5         68.307      120.07150        0.14640      5176.9697
         6588.0         68.316      117.88870        0.14650      5137.7568
         6588.5         70.496      118.64890        0.16190      5120.5312
         6589.0         73.315      121.25280        0.18190      5191.9619
         6589.5         76.396      126.39910        0.20370      5257.9204
         6590.0         79.876      131.98940        0.22830      5260.8979
         6590.5         82.436      135.44110        0.24640      5221.5850
         6591.0         83.141      137.53370        0.25140      5251.3096
         6591.5         82.525      138.60850        0.24700      5187.7192
         6592.0         82.594      139.58340        0.24750      5138.7163
         6592.5         84.257      141.20860        0.25920      5153.5044
         6593.0         85.849      142.16810        0.27050      5210.6763
         6593.5         86.477      142.89740        0.27490      5212.4590
         6594.0         86.807      143.75980        0.27730      5125.0547
         6594.5         86.988      144.87000        0.27860      5120.3960
         6595.0         86.510      144.93470        0.27520      5218.6855
         6595.5         85.792      144.06130        0.27010      5229.8989
         6596.0         85.051      142.85020        0.26490      5120.2153
         6596.5         82.716      140.55600        0.24830      5084.5000
         6597.0         78.078      137.29640        0.21550      5189.5811
         6597.5         74.760      134.54010        0.19210      5164.0078
         6598.0         73.847      132.94810        0.18560      5172.5024
         6598.5         73.387      132.07860        0.18240      5234.6030
         6599.0         73.917      132.13580        0.18610      5249.5952
         6599.5         77.822      134.90540        0.21370      5280.2339
