###############################################
##         ENVERUS                           ##
##         ESS - Open Hole                   ##
##         PERMIAN / MIDLAND                 ##
##         Nov 03 2023  V4.0                 ##
##         42-235-34485-90-00                ##
###############################################
## Copyright 2017-2023  ENVERUS.  All Rights Reserved. 
## Confidential - Property of ENVERUS, use governed by terms and 
## conditions found within the existing Information Services Subscription Agreement 
## (as may be amended, the “ISSA”) between Customer and ENVERUS. 
## 
~VERSION INFORMATION
# MNEM.UNIT                               DATA : DESCRIPTION OF MNEMONIC
#-----.-----     ----------------------------- : -----------------------------
VERS.                                     2.00 : CWLS LOG ASCII STANDARD - VERSION 2.00
WRAP.                                       NO : MULTIPLE LINES PER DEPTH STEP
VEND.                                  ENVERUS : VENDOR
TYPE.                          ESS - OPEN HOLE : ENVERUS ESSENTIAL CURVES – ACCESSIBLE THROUGH ENVERUS PRISM(TM)
DOC.                                  51094636 : ENVERUS HEADER RAW DOCUMENT ID
#___________________________________________________________________________________________________ 
~WELL INFORMATION 
# FMikr3+JyUztgncWDJlJj4UAVtjFs/xFdFTkOn/rCNZKdsWfgftU4ooQRZEXdd26HCoruynA4NvJdeWU6aB/BQ== 
# MNEM.UNIT                                              DATA : DESCRIPTION OF MNEMONIC 
#-----.-----                    ----------------------------- : ----------------------------- 
CNTY.                                                   IRION : COUNTY 
STATE.                                                  TEXAS : STATE 
CNTRY.                                                    USA : COUNTRY 
API.                                             42-235-34485 : API (10 Digit) 
API_14.                                    42-235-34485-90-00 : API (14 Digits) 
API_14_std.                                 42-235-34485-9000 : API (14 Digits Standard) 
UWI.                                           42235344859000 : UNIQUE WELL ID 
WELL.                                    UNIVERSITY 40-13 #1H : WELL NAME
STRT.FT                                                 187.0 : START DEPTH
STOP.FT                                                7212.0 : STOP DEPTH
STEP.FT                                                   0.5 : STEP BETWEEN DEPTHS
NULL.                                                 -999.25 : NULL VALUE
PREV_UWI.                                        42-235-34485 : API WELLHOLE NUMBER 
COMP.                                     EOG RESOURCES, INC. : COMPANY NAME 
COUN.                                                   IRION : COUNTY 
DAT2.                                                   02000 : LOGGING DATE 2 
DAT3.                                                   02000 : LOGGING DATE 3 
DAT4.                                                   02000 : LOGGING DATE 4 
DATE.                                              2/-1/-2010 : LOGGING DATE 
DFT.                                                    FRESH : DRILLING FLUID TYPE 
DMF.                                                       KB : DRILLING MEASURED 
ENGI.                                              R. ATKISON : ENGINEER 1 NAME 
LOC.                                        660 FNL & 660 FEL : FIELD LOCATION 
FL1.                                        660 FNL & 660 FEL : FIELD LOCATION LINE 1 
FL2.                                        SECT.13, BLOCK 40 : FIELD LOCATION LINE 2 
FLD.                                            LIN  WOLFCAMP : FIELD NAME 
HDAT.                                                   02000 : DATUM 
LMF.                                                       KB : LOG MEASURED FROM 
LUL.                                                   ODESSA : LOGGING UNIT LOCATION 
MCSS.                                                    MEAS : MUD CAKE SAMPLE SOURCE 
MFSS.                                                    MEAS : MUD FILTRATE SAMPLE SOURCE 
MSS.                                                  MUD PIT : SOURCE OF MUD SAMPLE 
OS1.                                             CSNG-DSN-SDL : OTHER SERVICES LINE 1 
OS2.                                                 DLL-MSFL : OTHER SERVICES LINE 2 
PDAT.                                                      GL : PERMANENT DATUM 
R1.             ANNULAR HOLE VOLUME CALCULATED FOR 5.5 INCH CASING. : REMARKS LINE 1 
R2.             LOGGING SCALES AND INTERVALS AS PER CUSTOMER REQUEST. : REMARKS LINE 2 
R3.             GR/CSNG/DSNT/SDLT/WSTT/DLLT/MGRD RAN IN COMBINATION AS SHOWN : REMARKS LINE 3 
RANG.                                                     N/A : RANGE 
RDT2.                                                   02000 : CASING DATE 2 
RDT3.                                                   02000 : CASING DATE 3 
RDT4.                                                   02000 : CASING DATE 4 
RDT5.                                                   02000 : CASING DATE 5 
SECT.                                                     N/A : SECTION 
SON.                                                  7176848 : SERVICE/TICKET ORDER NUMBER 
PROV.                                                   TEXAS : STATE 
TOWN.                                                     N/A : TOWNSHIP 
WITN.                                              GREG PALKO : WITNESS 1 NAME
#___________________________________________________________________________________________________ 
~PARAMETER INFORMATION 
# MNEM.UNIT                                              DATA : DESCRIPTION OF MNEMONIC 
#-----.-----                    ----------------------------- : -----------------------------
#___________________________________________________________________________________________________ 
~CURVE INFORMATION 
# MNEM.UNIT           : CURVE DESCRIPTION 
#-----.-----          : ----------------------------- 
 DEPT.FT               : MEASURED DEPTH 
 DT__E.US/FT           : SONIC DELTA TRANSIT TIME (DTC - DELTA-T COMPRESSIONAL - WAVE SONIC) 
 DTS__E.US/FT          : SHEAR SONIC TRAVEL TIME (SINGLE DIPOLE SONIC - WAVE SONIC) 
 SPHI_LS__E.V/V        : SONIC POROSITY - LIMESTONE (SPHIDTC - SONIC POROSITY MTX=47.6 (DTC)) 
 TENS__E.LBS           : CABLE TENSION (TENSION) 
 #___________________________________________________________________________________________________ 
~A         DEPT          DT__E         DTS__E     SPHI_LS__E        TENS__E
# ...
         5540.0         82.731      141.80690        0.24850      5084.2183
         5540.5         84.570      143.15370        0.26150      4950.1118
         5541.0         86.021      145.29570        0.27170      4979.2051
         5541.5         86.627      145.17420        0.27600      5070.9302
         5542.0         85.683      144.14000        0.26930      5065.5596
         5542.5         83.536      142.55950        0.25410      4977.2310
         5543.0         81.365      140.17140        0.23880      4969.3579
         5543.5         80.289      138.61400        0.23120      5026.3369
         5544.0         79.653      138.29830        0.22670      4929.3672
         5544.5         79.216      138.34970        0.22360      4883.6455
         5545.0         79.974      138.98180        0.22900      4980.9536
         5545.5         81.592      140.41900        0.24040      5046.0098
         5546.0         83.772      142.29280        0.25580      5001.7559
         5546.5         85.021      143.94320        0.26460      4983.0068
         5547.0         84.705      145.06110        0.26240      5041.9038
         5547.5         84.406      144.48060        0.26030      5033.6460
         5548.0         83.839      143.19830        0.25630      4987.5864
         5548.5         82.763      142.03600        0.24870      4985.6465
         5549.0         82.282      141.02730        0.24530      5072.8359
         5549.5         82.262      139.61710        0.24510      5068.0073
         5550.0         82.169      139.00210        0.24450      5026.9116
         5550.5         82.823      139.56400        0.24910      5015.2817
         5551.0         84.145      140.84310        0.25850      5018.7114
         5551.5         84.735      141.97660        0.26260      4984.3501
         5552.0         84.264      142.99850        0.25930      5027.4536
         5552.5         83.560      143.22610        0.25430      5085.4927
         5553.0         83.343      142.33280        0.25280      5104.9971
         5553.5         82.873      140.40110        0.24950      5027.5439
         5554.0         80.926      137.44590        0.23570      5005.5122
         5554.5         77.183      133.10760        0.20920      5035.2261
         5555.0         73.895      127.24200        0.18600      5046.4053
         5555.5         69.564      119.02110        0.15530      4977.8516
         5556.0         63.772      111.55020        0.11440      4951.3535
         5556.5         60.496      109.31640        0.09120      5043.9907
         5557.0         59.028      108.32390        0.08080      5047.6235
         5557.5         60.143      108.43910        0.08870      4964.9917
         5558.0         64.771      110.81160        0.12140      4985.1274
         5558.5         68.279      115.33950        0.14620      5125.4941
         5559.0         70.700      119.18490        0.16340      5102.7642
         5559.5         77.457      127.07580        0.21120      5015.9360
         5560.0         83.815      139.61460        0.25610      5052.3496
         5560.5         85.562      145.02710        0.26850      5113.5259
         5561.0         85.523      147.34680        0.26820      4989.3809
         5561.5         85.056      147.87090        0.26490      4985.5562
         5562.0         84.492      147.57880        0.26090      5047.1953
         5562.5         84.472      147.42510        0.26080      5072.1816
         5563.0         84.963      147.10150        0.26420      5029.9126
         5563.5         85.008      146.78770        0.26460      5004.2598
         5564.0         84.193      146.36380        0.25880      5037.5493
         5564.5         83.473      145.27120        0.25370      4983.7969
         5565.0         82.697      144.06910        0.24820      4942.2266
         5565.5         81.243      142.23850        0.23790      4979.9160
         5566.0         80.110      140.25770        0.22990      5090.9536
         5566.5         79.458      139.26150        0.22530      5081.4663
         5567.0         79.361      138.99410        0.22460      4984.6318
         5567.5         80.314      138.97120        0.23140      5049.8569
         5568.0         81.148      137.38430        0.23730      5135.9180
         5568.5         81.174      137.51630        0.23740      4999.2065
         5569.0         82.093      139.91200        0.24390      4924.1440
         5569.5         83.997      143.64400        0.25740      5048.7847
         5570.0         85.536      146.66590        0.26830      5127.1753
         5570.5         87.085      148.18500        0.27920      4983.3232
         5571.0         88.261      148.88120        0.28760      4995.2354
         5571.5         88.177      149.06720        0.28700      5073.1973
         5572.0         87.211      149.40290        0.28010      4999.7476
         5572.5         85.781      150.05590        0.27000      4995.9126
         5573.0         84.761      149.40150        0.26280      5062.0850
         5573.5         84.659      148.39760        0.26210      5026.2354
         5574.0         85.369      147.99980        0.26710      4919.4624
         5574.5         85.934      148.33680        0.27110      4985.3081
         5575.0         85.945      149.09950        0.27120      5088.2007
         5575.5         85.237      148.27100        0.26620      5055.9941
         5576.0         84.024      146.57500        0.25760      4979.9839
         5576.5         83.370      145.87910        0.25300      5036.0830
         5577.0         82.805      144.33420        0.24900      5082.3452
         5577.5         81.804      142.72790        0.24190      5109.8706
         5578.0         81.464      141.53080        0.23950      5113.5601
         5578.5         82.257      141.71390        0.24510      5058.4526
         5579.0         83.256      142.43680        0.25220      4994.4233
         5579.5         83.824      142.74750        0.25620      5026.4272
         5580.0         83.932      141.70140        0.25690      5114.8799
         5580.5         83.393      140.73390        0.25310      5067.9292
         5581.0         82.927      140.44570        0.24980      5017.4136
         5581.5         83.371      140.85620        0.25300      5046.6982
         5582.0         84.493      141.48150        0.26090      5075.2388
         5582.5         85.487      143.67070        0.26790      5052.4399
         5583.0         85.929      144.40150        0.27110      5034.5493
         5583.5         86.034      143.72930        0.27180      5016.2061
         5584.0         85.120      142.51650        0.26530      4999.3188
         5584.5         81.353      138.71520        0.23870      5012.1904
         5585.0         76.140      133.85200        0.20180      5062.1982
         5585.5         73.727      130.83730        0.18480      5059.2646
         5586.0         73.158      128.61980        0.18080      5022.7607
         5586.5         72.704      127.59160        0.17750      5084.5000
         5587.0         71.908      128.47550        0.17190      5180.4209
         5587.5         72.662      130.85700        0.17720      5090.3213
         5588.0         76.228      134.25520        0.20250      4990.8813
         5588.5         78.503      137.36710        0.21860      5076.6826
         5589.0         79.532      138.40580        0.22580      5132.6694
         5589.5         81.191      139.45310        0.23760      5049.0791
         5590.0         83.388      141.21220        0.25310      5035.4287
         5590.5         85.280      143.10590        0.26650      5036.2295
         5591.0         85.788      143.63040        0.27010      5069.6772
         5591.5         84.775      143.95570        0.26290      5022.1738
         5592.0         83.609      143.78950        0.25470      5027.9155
         5592.5         83.349      142.14440        0.25280      5126.8936
