###############################################
##         ENVERUS                           ##
##         ESS - Open Hole                   ##
##         PERMIAN / MIDLAND                 ##
##         Nov 04 2023  V4.0                 ##
##         42-383-38290-90-00                ##
###############################################
## Copyright 2017-2023  ENVERUS.  All Rights Reserved. 
## Confidential - Property of ENVERUS, use governed by terms and 
## conditions found within the existing Information Services Subscription Agreement 
## (as may be amended, the “ISSA”) between Customer and ENVERUS. 
## 
~VERSION INFORMATION
# MNEM.UNIT                               DATA : DESCRIPTION OF MNEMONIC
#-----.-----     ----------------------------- : -----------------------------
VERS.                                     2.00 : CWLS LOG ASCII STANDARD - VERSION 2.00
WRAP.                                       NO : MULTIPLE LINES PER DEPTH STEP
VEND.                                  ENVERUS : VENDOR
TYPE.                          ESS - OPEN HOLE : ENVERUS ESSENTIAL CURVES – ACCESSIBLE THROUGH ENVERUS PRISM(TM)
DOC.                                  51094660 : ENVERUS HEADER RAW DOCUMENT ID
#___________________________________________________________________________________________________ 
~WELL INFORMATION 
# m1FPRISIcKBcMzk40yd34Gtphn5JoOH7jww50mYGKLfe2DZfACMCifCPsuzsX4y0yEiREccSdbTgxIOvDda2cA== 
# MNEM.UNIT                                              DATA : DESCRIPTION OF MNEMONIC 
#-----.-----                    ----------------------------- : ----------------------------- 
CNTY.                                                  REAGAN : COUNTY 
STATE.                                                  TEXAS : STATE 
CNTRY.                                                    USA : COUNTRY 
API.                                             42-383-38290 : API (10 Digit) 
API_14.                                    42-383-38290-90-00 : API (14 Digits) 
API_14_std.                                 42-383-38290-9000 : API (14 Digits Standard) 
UWI.                                           42383382909000 : UNIQUE WELL ID 
WELL.                                    UNIVERSITY 43-14 #6H : WELL NAME
STRT.FT                                                 900.0 : START DEPTH
STOP.FT                                                7359.0 : STOP DEPTH
STEP.FT                                                   0.5 : STEP BETWEEN DEPTHS
NULL.                                                 -999.25 : NULL VALUE
COMP.                       DEVON ENERGY PRODUCTION CO., L.P. : COMPANY 
FLD.                                           LIN (WOLFCAMP) : FIELD 
LOC.                                       201 FSL & 1115 FWL : LOCATION 
SRVC.                                             BAKER ATLAS : SERVICE COMPANY 
DATE.                                             25-AUG-2013 : LOG DATE 
PREV_APII.                                     42383382900000 : API NUMBER 
PREV_UWI.                                      42383382900000 : UNIQUE WELL ID
#___________________________________________________________________________________________________ 
~PARAMETER INFORMATION 
# MNEM.UNIT                                              DATA : DESCRIPTION OF MNEMONIC 
#-----.-----                    ----------------------------- : ----------------------------- 
HIDE.                                  COMPENSATED Z-DENSILOG : HEADER IDENTIFER 
HID1.                                 COMPENSATED NEUTRON LOG : HEADER IDENTIFER 
HID2.                                      DIGITAL SPECTRALOG : HEADER IDENTIFER 
HID3.                                           GAMMA RAY LOG : HEADER IDENTIFER 
CLAB.                                                  COUNTY : COUNTY LABEL (COMMENTS) 
SLAB.                                                   STATE : STATE LABEL (COMMENTS) 
FILE.                                                 MD10587 : FILE NUMBER 
CMT2.                                             FINAL PRINT : COMMENT 2 
FL1.                                          SEC.14, BLK. 43 : FIELD LOCATION 1 
FL3.                                  UNIVERSITY LAND SURVEY. : FIELD LOCATION 3 
OS2.                                                  HDIL/GR : OTHER SERVICES LINE 2 
OS3.                                                  XMAC/GR : OTHER SERVICES LINE 3 
OS4.                                                      BHP : OTHER SERVICES LINE 4 
PDAT.                                                    G.L. : PERMANENT DATUM 
EPD.FT                                                   2678 : ELEVATION OF PERM. DATUM 
LMF.                                                     K.B. : LOG MEASURED FROM 
APD.FT                                                     25 : ABOVE PERMANENT DATUM 
DMF.                                            KELLY BUSHING : DRILLING MEASURED FROM 
EKB.FT                                                   2703 : ELEVATION OF KELLY BUSHING 
EDF.FT                                                   2702 : ELEVATION OF DERRICK FLOOR 
EGL.FT                                                   2678 : ELEVATION OF GROUND LEVEL 
RUN.                                                        1 : RUN NUMBER 
TRIP.                                                       1 : TRIP NUMBER 
SON.                                                   636509 : SERVICE ORDER NUMBER 
TDD.FT                                                   7363 : TOTAL DEPTH - DRILLER 
TDL.FT                                                   7363 : TOTAL DEPTH - LOGGER 
BLI.FT                                                   7273 : BOTTOM LOG INTERVAL 
TLI.FT                                                    924 : TOP LOG INTERVAL 
CSIZ.IN                                                 9.625 : CASING SIZE 
CBDR.FT                                                   927 : CASING BOTTOM - DRILLER 
CBLO.FT                                                   924 : CASING BOTTOM - LOGGER 
BS.IN                                                    8.75 : BIT SIZE 
DFT.                                            OIL BASED MUD : DRILLING FLUID TYPE 
DFD.LB/G                                                    9 : DRILLING FLUID DENSITY 
DFV.S                                                      20 : DRILLING FLUID VISCOSITY 
MSS.                                                      OBM : MUD SAMPLE SOURCE 
MFSS.                                                      -- : MUD FILTRATE SAMPLE SOURCE 
MCSS.                                                      -- : MUD CAKE SAMPLE SOURCE 
TSC.                                                  7 HOURS : TIME SINCE CIRCULATION 
MRT.DEGF                                                  152 : MAXIMUM RECORDED TEMPERATURE 
LUN.                                                  HL-6713 : LOGGING UNIT NUMBER 
LUL.                                              MIDLAND, TX : LOGGING UNIT LOCATION 
ENGI.                                               O. ROBLES : ENGINEERS NAME 
WITN.                                                W. LUTKE : WITNESS NAME 
TSTR.                                           ZDL/CN/DSL/GR : TITLE SERVICE MNEMONIC 
TSTG.                                                      NA : TITLE SERVICE MNEMONIC 
STUS.                                                   FINAL : STATUS 
LCNM.                                             BAKER ATLAS : LOGGING COMPANY NAME 
LCC.                                                      150 : LOGGING COMPANY CODE 
OPMD.                                                 OH.WIRE : OPERATION MODE 
PANA.                                               O. ROBLES : PROCESSING ANALYST 
PCON.                                             BAKER ATLAS : PROCESSING CONTRACTOR
#___________________________________________________________________________________________________ 
~CURVE INFORMATION 
# MNEM.UNIT           : CURVE DESCRIPTION 
#-----.-----          : ----------------------------- 
 DEPT.FT               : MEASURED DEPTH 
 CALI.IN               : CALIPER (CALX - CALIPER FROM X-AXIS OF XY CALIPER(S)) 
 GR.API                : GAMMA RAY (GAMMA RAY) 
 SGR.API               : SPECTRAL GAMMA RAY (KTH - STRIPPED POTASSIUM-THORIUM) 
 SGR_TH_PPM.PPM        : SPECTRAL GAMMA RAY - THORIUM IN PPM (TH - THORIUM CONCENTRATION) 
 SGR_U_PPM.PPM         : SPECTRAL GAMMA RAY - URANIUM IN PPM (U - URANIUM CONTENT) 
 SP.MV                 : SPONTANEOUS POTENTIAL (SPDH - SPONTANEOUS POTENTIAL PROCESSED IN COMMON REMOTE) 
 DT.US/FT              : SONIC DELTA TRANSIT TIME (DT24 - SLOWNESS OVER 24-INCH INTERVAL) 
 PE.B/E                : PHOTOELECTRIC EFFECT/FACTOR (PHOTO ELECTRIC CROSS-SECTION) 
 RESS_10M2.OHMM        : RESISTIVITY SHALLOW - 10 IN 2 FT VERTICAL (M2R1 - VERTICAL 2-FOOT RESOLUTION MATCHED RESISTIVITY 10-INCH DOI) 
 RESS_20M2.OHMM        : RESISTIVITY SHALLOW - 20 IN 2 FT VERTICAL (M2R2 - VERTICAL 2-FOOT RESOLUTION MATCHED RESISTIVITY 20-INCH DOI) 
 RESM_30M2.OHMM        : RESISTIVITY MEDIUM - 30 IN 2 FT VERTICAL (M2R3 - VERTICAL 2-FOOT RESOLUTION MATCHED RESISTIVITY 30-INCH DOI) 
 RESD_60M2.OHMM        : RESISTIVITY DEEP - 60 IN 2 FT VERTICAL (M2R6 - VERTICAL 2-FOOT RESOLUTION MATCHED RESISTIVITY 60-INCH DOI) 
 RESD_90M2.OHMM        : RESISTIVITY DEEP - 90 IN 2 FT VERTICAL (M2R9 - VERTICAL 2-FOOT RESOLUTION MATCHED RESISTIVITY 90-INCH DOI) 
 RESD_120M2.OHMM       : RESISTIVITY DEEP - 120 IN 2 FT VERTICAL (M2RX - VERTICAL 2-FOOT RESOLUTION MATCHED RESISTIVITY 120-INCH DOI) 
 DPHI.V/V              : DENSITY POROSITY (PORZC - CORRECTED POROSITY) 
 NPHI.V/V              : NEUTRON POROSITY (CNC - BOREHOLE SIZE CORRECTED COMPENSATED NEUTRON POROSITY) 
 SPHI.V/V              : SONIC POROSITY (PORA - ACOUSTIC POROSITY) 
 DRHO.G/CC             : DENSITY CORRECTION (ZCOR - DENSITY CORRECTION) 
 RHOB.G/CC             : BULK DENSITY (ZDNC - BOREHOLE SIZE/MUD WEIGHT CORRECTED DENSITY) 
 TEMP.DEGF             : TEMPERATURE (WTBH - TEMPERATURE OF BOREHOLE) 
 #___________________________________________________________________________________________________ 
~A         DEPT           CALI             GR            SGR     SGR_TH_PPM      SGR_U_PPM             SP             DT             PE      RESS_10M2      RESS_20M2      RESM_30M2      RESD_60M2      RESD_90M2     RESD_120M2           DPHI           NPHI           SPHI           DRHO           RHOB           TEMP
# ...
         5151.0          8.997        119.655         81.843         11.030          5.200        -64.911         84.116         2.8610         10.852         10.236         10.061         10.152         10.279         10.459        0.14867        0.23650        0.25643        0.00600         2.4560        135.531
         5151.5          8.973        116.954         83.170         11.441          4.703        -66.111         82.912         2.8370         11.537         11.042         10.874         10.971         11.131         11.346        0.14394        0.22423        0.24798        0.00600         2.4640        135.710
         5152.0          8.969        112.412         81.392         11.637          4.399        -67.897         81.723         2.8760         10.772         10.542         10.427         10.514         10.655         10.873        0.13765        0.21692        0.23962        0.00600         2.4750        135.950
         5152.5          8.981        109.622         77.984         11.468          4.485        -69.628         80.908         2.9420          9.825          9.739          9.665          9.737          9.871         10.075        0.13371        0.21826        0.23390        0.00400         2.4810        135.933
         5153.0          8.988        110.084         75.700         11.103          4.756        -68.185         80.591         2.9940          9.494          9.510          9.458          9.528          9.672          9.874        0.13476        0.22769        0.23168        0.00100         2.4800        135.767
         5153.5          8.992        110.376         73.052         10.608          5.062        -63.692         80.517         3.0230          9.731          9.832          9.805          9.879         10.039         10.249        0.13734        0.23305        0.23116       -0.00100         2.4750        135.834
         5154.0          9.000        107.514         67.612          9.880          5.437        -60.239         80.225         3.0440         10.085         10.284         10.296         10.376         10.553         10.770        0.13347        0.22994        0.22911       -0.00200         2.4820        135.971
         5154.5          9.002        103.396         62.901          9.260          5.604        -59.382         79.342         3.0490          9.825         10.121         10.186         10.271         10.457         10.664        0.12278        0.22504        0.22290       -0.00100         2.5000        135.901
         5155.0          8.989        101.954         62.446          9.053          5.451        -59.764         77.823         3.0030          8.582          8.913          9.021          9.105          9.281          9.454        0.11398        0.22063        0.21224        0.00000         2.5150        135.724
         5155.5          8.974        102.185         64.363          9.095          5.147        -60.341         75.903         2.9220          7.011          7.285          7.404          7.479          7.632          7.764        0.11214        0.21344        0.19875        0.00000         2.5180        135.715
         5156.0          8.975        100.567         65.944          9.265          4.711        -60.236         73.818         2.8420          5.938          6.129          6.238          6.307          6.440          6.542        0.11281        0.20107        0.18412        0.00100         2.5170        136.114
         5156.5          8.988         95.728         65.272          9.369          4.216        -59.419         71.822         2.7850          5.544          5.652          5.745          5.813          5.936          6.021        0.11260        0.18492        0.17010        0.00300         2.5170        136.717
         5157.0          8.995         89.893         62.554          9.128          3.858        -59.484         70.322         2.8040          5.673          5.691          5.760          5.831          5.953          6.029        0.11195        0.17271        0.15956        0.00300         2.5190        136.832
         5157.5          8.989         84.983         59.283          8.687          3.713        -60.485         69.662         2.8790          6.105          6.016          6.053          6.130          6.253          6.324        0.11284        0.16887        0.15493        0.00200         2.5170        136.408
         5158.0          8.987         82.756         57.555          8.343          3.694        -60.825         69.801         2.9090          6.630          6.430          6.434          6.519          6.644          6.710        0.11618        0.17001        0.15590       -0.00100         2.5110        135.660
         5158.5          8.990         83.222         57.628          8.182          3.728        -60.729         70.339         2.8850          7.208          6.905          6.877          6.971          7.099          7.161        0.11874        0.17392        0.15968       -0.00300         2.5070        134.860
         5159.0          8.982         83.546         57.736          8.168          3.759        -61.283         71.041         2.9110          7.786          7.435          7.387          7.491          7.620          7.679        0.11439        0.17879        0.16462       -0.00100         2.5140        134.741
         5159.5          8.967         84.046         58.135          8.273          3.807        -62.591         72.155         3.0270          8.196          7.892          7.846          7.954          8.082          8.135        0.10326        0.18409        0.17244        0.00400         2.5330        135.658
         5160.0          8.966         88.887         61.528          8.946          3.984        -63.086         74.092         3.1320          8.285          8.117          8.099          8.200          8.320          8.365        0.09732        0.19355        0.18604        0.00800         2.5440        136.636
         5160.5          8.971         99.355         69.043         10.448          4.298        -61.871         76.696         3.1190          8.114          8.097          8.119          8.205          8.315          8.352        0.10602        0.20908        0.20433        0.00800         2.5290        136.829
         5161.0          8.967        110.692         77.822         11.872          4.475        -60.547         79.033         3.0230          7.875          8.004          8.062          8.134          8.239          8.270        0.12053        0.22290        0.22074        0.00500         2.5040        136.503
         5161.5          8.960        116.462         82.510         12.425          4.477        -60.854         80.082         2.9390          7.707          7.942          8.028          8.085          8.188          8.214        0.12860        0.23009        0.22810        0.00400         2.4900        136.222
         5162.0          8.966        114.436         80.759         12.491          4.482        -61.440         79.460         2.8940          7.423          7.697          7.795          7.836          7.939          7.961        0.12785        0.22957        0.22373        0.00500         2.4910        136.429
         5162.5          8.975        108.678         75.520         12.433          4.515        -60.430         77.669         2.8340          6.796          7.028          7.118          7.149          7.244          7.262        0.12227        0.21910        0.21116        0.00600         2.5010        136.870
         5163.0          8.969        102.046         68.364         11.898          4.631        -58.752         75.630         2.7120          6.063          6.199          6.268          6.289          6.375          6.390        0.11559        0.20375        0.19684        0.00700         2.5120        136.902
         5163.5          8.955         93.948         60.234         10.956          4.737        -58.313         74.068         2.6080          5.592          5.622          5.667          5.682          5.762          5.775        0.11096        0.18862        0.18587        0.01000         2.5200        136.487
