###############################################
##         ENVERUS                           ##
##         ESS - Open Hole                   ##
##         PERMIAN / MIDLAND                 ##
##         Nov 03 2023  V4.0                 ##
##         42-235-34485-90-00                ##
###############################################
## Copyright 2017-2023  ENVERUS.  All Rights Reserved. 
## Confidential - Property of ENVERUS, use governed by terms and 
## conditions found within the existing Information Services Subscription Agreement 
## (as may be amended, the “ISSA”) between Customer and ENVERUS. 
## 
~VERSION INFORMATION
# MNEM.UNIT                               DATA : DESCRIPTION OF MNEMONIC
#-----.-----     ----------------------------- : -----------------------------
VERS.                                     2.00 : CWLS LOG ASCII STANDARD - VERSION 2.00
WRAP.                                       NO : MULTIPLE LINES PER DEPTH STEP
VEND.                                  ENVERUS : VENDOR
TYPE.                          ESS - OPEN HOLE : ENVERUS ESSENTIAL CURVES – ACCESSIBLE THROUGH ENVERUS PRISM(TM)
DOC.                                  51094636 : ENVERUS HEADER RAW DOCUMENT ID
#___________________________________________________________________________________________________ 
~WELL INFORMATION 
# FMikr3+JyUztgncWDJlJj4UAVtjFs/xFdFTkOn/rCNZKdsWfgftU4ooQRZEXdd26HCoruynA4NvJdeWU6aB/BQ== 
# MNEM.UNIT                                              DATA : DESCRIPTION OF MNEMONIC 
#-----.-----                    ----------------------------- : ----------------------------- 
CNTY.                                                   IRION : COUNTY 
STATE.                                                  TEXAS : STATE 
CNTRY.                                                    USA : COUNTRY 
API.                                             42-235-34485 : API (10 Digit) 
API_14.                                    42-235-34485-90-00 : API (14 Digits) 
API_14_std.                                 42-235-34485-9000 : API (14 Digits Standard) 
UWI.                                           42235344859000 : UNIQUE WELL ID 
WELL.                                    UNIVERSITY 40-13 #1H : WELL NAME
STRT.FT                                                 187.0 : START DEPTH
STOP.FT                                                7212.0 : STOP DEPTH
STEP.FT                                                   0.5 : STEP BETWEEN DEPTHS
NULL.                                                 -999.25 : NULL VALUE
PREV_UWI.                                        42-235-34485 : API WELLHOLE NUMBER 
COMP.                                     EOG RESOURCES, INC. : COMPANY NAME 
COUN.                                                   IRION : COUNTY 
DAT2.                                                   02000 : LOGGING DATE 2 
DAT3.                                                   02000 : LOGGING DATE 3 
DAT4.                                                   02000 : LOGGING DATE 4 
DATE.                                              2/-1/-2010 : LOGGING DATE 
DFT.                                                    FRESH : DRILLING FLUID TYPE 
DMF.                                                       KB : DRILLING MEASURED 
ENGI.                                              R. ATKISON : ENGINEER 1 NAME 
LOC.                                        660 FNL & 660 FEL : FIELD LOCATION 
FL1.                                        660 FNL & 660 FEL : FIELD LOCATION LINE 1 
FL2.                                        SECT.13, BLOCK 40 : FIELD LOCATION LINE 2 
FLD.                                            LIN  WOLFCAMP : FIELD NAME 
HDAT.                                                   02000 : DATUM 
LMF.                                                       KB : LOG MEASURED FROM 
LUL.                                                   ODESSA : LOGGING UNIT LOCATION 
MCSS.                                                    MEAS : MUD CAKE SAMPLE SOURCE 
MFSS.                                                    MEAS : MUD FILTRATE SAMPLE SOURCE 
MSS.                                                  MUD PIT : SOURCE OF MUD SAMPLE 
OS1.                                             CSNG-DSN-SDL : OTHER SERVICES LINE 1 
OS2.                                                 DLL-MSFL : OTHER SERVICES LINE 2 
PDAT.                                                      GL : PERMANENT DATUM 
R1.             ANNULAR HOLE VOLUME CALCULATED FOR 5.5 INCH CASING. : REMARKS LINE 1 
R2.             LOGGING SCALES AND INTERVALS AS PER CUSTOMER REQUEST. : REMARKS LINE 2 
R3.             GR/CSNG/DSNT/SDLT/WSTT/DLLT/MGRD RAN IN COMBINATION AS SHOWN : REMARKS LINE 3 
RANG.                                                     N/A : RANGE 
RDT2.                                                   02000 : CASING DATE 2 
RDT3.                                                   02000 : CASING DATE 3 
RDT4.                                                   02000 : CASING DATE 4 
RDT5.                                                   02000 : CASING DATE 5 
SECT.                                                     N/A : SECTION 
SON.                                                  7176848 : SERVICE/TICKET ORDER NUMBER 
PROV.                                                   TEXAS : STATE 
TOWN.                                                     N/A : TOWNSHIP 
WITN.                                              GREG PALKO : WITNESS 1 NAME
#___________________________________________________________________________________________________ 
~PARAMETER INFORMATION 
# MNEM.UNIT                                              DATA : DESCRIPTION OF MNEMONIC 
#-----.-----                    ----------------------------- : -----------------------------
#___________________________________________________________________________________________________ 
~CURVE INFORMATION 
# MNEM.UNIT           : CURVE DESCRIPTION 
#-----.-----          : ----------------------------- 
 DEPT.FT               : MEASURED DEPTH 
 DT__E.US/FT           : SONIC DELTA TRANSIT TIME (DTC - DELTA-T COMPRESSIONAL - WAVE SONIC) 
 DTS__E.US/FT          : SHEAR SONIC TRAVEL TIME (SINGLE DIPOLE SONIC - WAVE SONIC) 
 SPHI_LS__E.V/V        : SONIC POROSITY - LIMESTONE (SPHIDTC - SONIC POROSITY MTX=47.6 (DTC)) 
 TENS__E.LBS           : CABLE TENSION (TENSION) 
 #___________________________________________________________________________________________________ 
~A         DEPT          DT__E         DTS__E     SPHI_LS__E        TENS__E
# ...
         5964.0         81.093      139.95870        0.23690      5134.2041
         5964.5         79.512      138.63570        0.22570      5135.2075
         5965.0         79.012      136.97780        0.22210      5098.6460
         5965.5         79.649      137.00350        0.22670      5166.9404
         5966.0         80.341      137.33850        0.23160      5161.1313
         5966.5         80.356      138.32430        0.23170      5063.6646
         5967.0         80.147      138.43350        0.23020      5002.4775
         5967.5         80.339      137.64830        0.23150      5087.4106
         5968.0         80.506      135.71340        0.23270      5139.7539
         5968.5         79.135      134.04730        0.22300      5137.2500
         5969.0         76.344      130.38950        0.20330      5091.0205
         5969.5         74.493      127.71000        0.19020      5141.2876
         5970.0         73.915      127.20330        0.18610      5167.6396
         5970.5         74.645      129.66780        0.19130      5047.7700
         5971.0         78.011      134.81030        0.21510      5020.3691
         5971.5         81.172      138.85240        0.23740      5119.5391
         5972.0         82.225      140.89460        0.24490      5152.1177
         5972.5         82.431      141.47620        0.24630      5075.4644
         5973.0         82.641      141.92780        0.24780      5042.5928
         5973.5         83.281      142.58330        0.25230      5064.5903
         5974.0         83.886      142.61380        0.25660      5076.5815
         5974.5         84.040      142.41530        0.25770      5077.9463
         5975.0         83.370      142.38680        0.25300      5118.3545
         5975.5         82.355      141.80850        0.24580      5049.8569
         5976.0         81.557      140.24750        0.24020      5031.4805
         5976.5         80.638      138.34330        0.23360      5053.4106
         5977.0         79.457      137.44800        0.22530      5148.7446
         5977.5         78.571      137.52970        0.21900      5114.8677
         5978.0         79.117      137.30610        0.22290      5061.5894
         5978.5         81.148      137.32710        0.23730      5005.7603
         5979.0         82.837      138.35320        0.24920      5051.5039
         5979.5         82.861      139.05340        0.24940      5084.9067
         5980.0         81.637      138.29570        0.24070      5011.6606
         5980.5         80.253      137.00840        0.23090      4972.4478
         5981.0         78.149      133.50130        0.21600      5076.9536
         5981.5         72.834      126.41730        0.17850      5163.3755
         5982.0         68.907      122.06750        0.15070      5124.6602
         5982.5         68.388      120.50410        0.14700      5140.9946
         5983.0         69.703      121.30550        0.15630      5156.9341
         5983.5         73.586      123.86730        0.18380      5157.6899
         5984.0         78.247      126.65200        0.21670      5082.1426
         5984.5         80.676      130.23640        0.23390      5091.1328
         5985.0         81.225      134.04790        0.23780      5142.6523
         5985.5         80.910      135.78460        0.23560      5149.1387
         5986.0         81.082      136.85290        0.23680      5092.9497
         5986.5         81.668      138.02510        0.24090      5186.3091
         5987.0         82.651      139.13110        0.24790      5241.1006
         5987.5         84.322      141.69620        0.25970      5285.9185
         5988.0         85.973      146.48790        0.27140      5232.1099
         5988.5         86.410      147.89730        0.27450      5198.3799
         5989.0         85.126      147.19670        0.26540      5185.0576
         5989.5         83.294      146.18430        0.25240      5197.7485
         5990.0         81.773      144.13390        0.24170      5171.0474
         5990.5         80.730      141.97690        0.23430      5126.4536
         5991.0         80.083      139.85260        0.22970      5178.7397
         5991.5         79.932      138.73030        0.22870      5176.7998
         5992.0         80.494      138.45280        0.23260      5058.7910
         5992.5         81.212      138.90630        0.23770      5097.3828
         5993.0         81.584      140.21330        0.24030      5229.7183
         5993.5         82.192      142.33860        0.24460      5185.6890
         5994.0         83.647      145.03330        0.25490      5021.5645
         5994.5         85.488      149.04380        0.26790      5049.1572
         5995.0         86.781      153.82900        0.27710      5179.4844
         5995.5         87.164      156.03630        0.27980      5102.8545
         5996.0         86.958      156.09060        0.27830      5064.6807
         5996.5         86.078      154.69010        0.27210      5097.9355
         5997.0         83.989      152.40120        0.25730      5168.5420
         5997.5         82.225      149.47700        0.24490      5091.9790
         5998.0         81.980      147.36440        0.24310      5078.5215
         5998.5         82.446      146.82340        0.24640      5137.9482
         5999.0         82.575      146.74740        0.24730      5101.9521
         5999.5         82.198      144.08930        0.24470      4979.8032
         6000.0         81.053      139.79870        0.23660      4943.4229
         6000.5         79.124      134.49880        0.22290      5080.3037
         6001.0         77.605      131.22920        0.21220      5120.6890
         6001.5         75.736      128.03510        0.19900      5061.3525
         6002.0         70.666      123.60440        0.16310      5075.1260
         6002.5         65.917      118.42160        0.12950      5148.9922
         6003.0         64.284      116.12760        0.11800      5039.5015
         6003.5         65.756      116.15660        0.12840      4961.7090
         6004.0         69.283      117.34780        0.15330      5050.1621
         6004.5         72.518      119.26860        0.17620      5067.6021
         6005.0         78.456      122.39790        0.21820      4999.2739
         6005.5         84.446      133.54820        0.26060      4996.3413
         6006.0         86.462      143.21770        0.27480      5022.7939
         6006.5         86.966      145.55820        0.27840      5006.8091
         6007.0         87.162      147.46110        0.27980      4948.9390
         6007.5         87.275      149.97030        0.28060      4984.3608
         6008.0         86.630      150.85920        0.27600      5037.2222
         6008.5         85.458      148.67360        0.26770      5039.8174
         6009.0         84.659      145.21930        0.26210      5000.8086
         6009.5         84.342      142.31630        0.25980      4991.8398
         6010.0         83.786      140.59850        0.25590      5121.8403
         6010.5         83.048      139.77560        0.25070      5115.6689
         6011.0         82.861      138.57360        0.24940      5023.1660
         6011.5         82.576      136.62480        0.24740      4969.6958
         6012.0         80.622      134.60700        0.23350      5040.9907
         6012.5         77.751      132.73160        0.21320      5042.7612
         6013.0         75.604      131.21830        0.19800      5037.3696
         6013.5         75.532      130.67340        0.19750      4963.8408
         6014.0         77.847      130.99930        0.21390      4893.8096
         6014.5         79.119      130.91380        0.22290      4935.8306
         6015.0         77.825      129.54800        0.21380      4976.8818
         6015.5         74.668      127.50110        0.19140      5047.7700
         6016.0         73.475      125.77790        0.18300      5099.2896
         6016.5         74.136      124.60140        0.18770      5015.4736
