###############################################
##         ENVERUS                           ##
##         ESS - Open Hole                   ##
##         PERMIAN / MIDLAND                 ##
##         Nov 03 2023  V4.0                 ##
##         42-235-34485-90-00                ##
###############################################
## Copyright 2017-2023  ENVERUS.  All Rights Reserved. 
## Confidential - Property of ENVERUS, use governed by terms and 
## conditions found within the existing Information Services Subscription Agreement 
## (as may be amended, the “ISSA”) between Customer and ENVERUS. 
## 
~VERSION INFORMATION
# MNEM.UNIT                               DATA : DESCRIPTION OF MNEMONIC
#-----.-----     ----------------------------- : -----------------------------
VERS.                                     2.00 : CWLS LOG ASCII STANDARD - VERSION 2.00
WRAP.                                       NO : MULTIPLE LINES PER DEPTH STEP
VEND.                                  ENVERUS : VENDOR
TYPE.                          ESS - OPEN HOLE : ENVERUS ESSENTIAL CURVES – ACCESSIBLE THROUGH ENVERUS PRISM(TM)
DOC.                                  51094636 : ENVERUS HEADER RAW DOCUMENT ID
#___________________________________________________________________________________________________ 
~WELL INFORMATION 
# FMikr3+JyUztgncWDJlJj4UAVtjFs/xFdFTkOn/rCNZKdsWfgftU4ooQRZEXdd26HCoruynA4NvJdeWU6aB/BQ== 
# MNEM.UNIT                                              DATA : DESCRIPTION OF MNEMONIC 
#-----.-----                    ----------------------------- : ----------------------------- 
CNTY.                                                   IRION : COUNTY 
STATE.                                                  TEXAS : STATE 
CNTRY.                                                    USA : COUNTRY 
API.                                             42-235-34485 : API (10 Digit) 
API_14.                                    42-235-34485-90-00 : API (14 Digits) 
API_14_std.                                 42-235-34485-9000 : API (14 Digits Standard) 
UWI.                                           42235344859000 : UNIQUE WELL ID 
WELL.                                    UNIVERSITY 40-13 #1H : WELL NAME
STRT.FT                                                 187.0 : START DEPTH
STOP.FT                                                7212.0 : STOP DEPTH
STEP.FT                                                   0.5 : STEP BETWEEN DEPTHS
NULL.                                                 -999.25 : NULL VALUE
PREV_UWI.                                        42-235-34485 : API WELLHOLE NUMBER 
COMP.                                     EOG RESOURCES, INC. : COMPANY NAME 
COUN.                                                   IRION : COUNTY 
DAT2.                                                   02000 : LOGGING DATE 2 
DAT3.                                                   02000 : LOGGING DATE 3 
DAT4.                                                   02000 : LOGGING DATE 4 
DATE.                                              2/-1/-2010 : LOGGING DATE 
DFT.                                                    FRESH : DRILLING FLUID TYPE 
DMF.                                                       KB : DRILLING MEASURED 
ENGI.                                              R. ATKISON : ENGINEER 1 NAME 
LOC.                                        660 FNL & 660 FEL : FIELD LOCATION 
FL1.                                        660 FNL & 660 FEL : FIELD LOCATION LINE 1 
FL2.                                        SECT.13, BLOCK 40 : FIELD LOCATION LINE 2 
FLD.                                            LIN  WOLFCAMP : FIELD NAME 
HDAT.                                                   02000 : DATUM 
LMF.                                                       KB : LOG MEASURED FROM 
LUL.                                                   ODESSA : LOGGING UNIT LOCATION 
MCSS.                                                    MEAS : MUD CAKE SAMPLE SOURCE 
MFSS.                                                    MEAS : MUD FILTRATE SAMPLE SOURCE 
MSS.                                                  MUD PIT : SOURCE OF MUD SAMPLE 
OS1.                                             CSNG-DSN-SDL : OTHER SERVICES LINE 1 
OS2.                                                 DLL-MSFL : OTHER SERVICES LINE 2 
PDAT.                                                      GL : PERMANENT DATUM 
R1.             ANNULAR HOLE VOLUME CALCULATED FOR 5.5 INCH CASING. : REMARKS LINE 1 
R2.             LOGGING SCALES AND INTERVALS AS PER CUSTOMER REQUEST. : REMARKS LINE 2 
R3.             GR/CSNG/DSNT/SDLT/WSTT/DLLT/MGRD RAN IN COMBINATION AS SHOWN : REMARKS LINE 3 
RANG.                                                     N/A : RANGE 
RDT2.                                                   02000 : CASING DATE 2 
RDT3.                                                   02000 : CASING DATE 3 
RDT4.                                                   02000 : CASING DATE 4 
RDT5.                                                   02000 : CASING DATE 5 
SECT.                                                     N/A : SECTION 
SON.                                                  7176848 : SERVICE/TICKET ORDER NUMBER 
PROV.                                                   TEXAS : STATE 
TOWN.                                                     N/A : TOWNSHIP 
WITN.                                              GREG PALKO : WITNESS 1 NAME
#___________________________________________________________________________________________________ 
~PARAMETER INFORMATION 
# MNEM.UNIT                                              DATA : DESCRIPTION OF MNEMONIC 
#-----.-----                    ----------------------------- : -----------------------------
#___________________________________________________________________________________________________ 
~CURVE INFORMATION 
# MNEM.UNIT           : CURVE DESCRIPTION 
#-----.-----          : ----------------------------- 
 DEPT.FT               : MEASURED DEPTH 
 DT__E.US/FT           : SONIC DELTA TRANSIT TIME (DTC - DELTA-T COMPRESSIONAL - WAVE SONIC) 
 DTS__E.US/FT          : SHEAR SONIC TRAVEL TIME (SINGLE DIPOLE SONIC - WAVE SONIC) 
 SPHI_LS__E.V/V        : SONIC POROSITY - LIMESTONE (SPHIDTC - SONIC POROSITY MTX=47.6 (DTC)) 
 TENS__E.LBS           : CABLE TENSION (TENSION) 
 #___________________________________________________________________________________________________ 
~A         DEPT          DT__E         DTS__E     SPHI_LS__E        TENS__E
# ...
         4374.0        101.997      192.08840        0.38470      4474.5249
         4374.5        102.365      193.24860        0.38730      4352.9634
         4375.0        106.703      198.39070        0.41800      4353.8877
         4375.5        111.217      205.87400        0.44990      4528.5605
         4376.0        111.908      210.26100        0.45480      4517.7861
         4376.5        110.581      210.51810        0.44540      4434.0718
         4377.0        106.933      207.84580        0.41960      4481.9028
         4377.5        100.895      204.62540        0.37690      4499.7261
         4378.0         96.975      199.53850        0.34920      4390.1338
         4378.5         93.616      189.33470        0.32540      4384.6060
         4379.0         91.509      178.26190        0.31050      4431.9961
         4379.5         91.291      173.62520        0.30900      4423.6943
         4380.0         92.282      174.60850        0.31600      4406.9414
         4380.5         93.705      179.23800        0.32610      4457.1069
         4381.0         95.393      184.75860        0.33800      4487.3735
         4381.5         98.065      189.52940        0.35690      4455.2231
         4382.0        100.706      195.31000        0.37560      4404.7305
         4382.5        101.461      198.63280        0.38090      4369.4561
         4383.0        101.313      199.28730        0.37990      4446.2778
         4383.5         98.023      194.59730        0.35660      4444.7432
         4384.0         91.839      182.56630        0.31290      4396.8789
         4384.5         84.610      168.58430        0.26170      4372.5459
         4385.0         80.362      156.17430        0.23170      4459.3862
         4385.5         76.279      149.68770        0.20280      4459.5215
         4386.0         73.313      146.07480        0.18180      4420.6250
         4386.5         73.169      144.65050        0.18080      4423.2646
         4387.0         76.607      146.21010        0.20510      4451.4897
         4387.5         81.376      154.10260        0.23890      4459.8037
         4388.0         83.821      160.02830        0.25620      4413.3608
         4388.5         84.986      158.07040        0.26440      4331.0781
         4389.0         84.380      153.76870        0.26010      4443.0742
         4389.5         81.542      150.02330        0.24000      4490.5547
         4390.0         79.099      147.66020        0.22280      4466.4258
         4390.5         78.606      146.50270        0.21930      4437.8623
         4391.0         80.260      145.95010        0.23100      4445.1274
         4391.5         84.113      149.22490        0.25820      4487.7236
         4392.0         90.031      158.82550        0.30010      4460.6157
         4392.5         95.897      169.68620        0.34160      4363.7583
         4393.0         98.885      179.63490        0.36270      4369.1738
         4393.5        100.231      186.63350        0.37220      4502.6929
         4394.0        101.063      189.40150        0.37810      4462.2856
         4394.5         99.343      187.94280        0.36590      4367.9663
         4395.0         97.102      186.09950        0.35010      4412.9092
         4395.5         96.778      184.25510        0.34780      4508.4575
         4396.0         96.416      183.98390        0.34520      4471.9414
         4396.5         96.019      183.55390        0.34240      4436.5767
         4397.0         96.874      183.28410        0.34850      4431.5908
         4397.5         99.085      184.17620        0.36410      4412.8296
         4398.0        101.020      185.97760        0.37780      4368.5869
         4398.5        101.569      187.20360        0.38170      4377.7578
         4399.0        101.326      187.21470        0.38000      4340.5996
         4399.5        100.682      186.60460        0.37540      4361.2886
         4400.0         98.410      184.37080        0.35930      4445.9849
         4400.5         96.051      180.57520        0.34270      4440.5811
         4401.0         94.792      177.17310        0.33370      4370.3350
         4401.5         94.325      174.73070        0.33040      4393.2017
         4402.0         94.004      173.17670        0.32820      4483.7192
         4402.5         93.862      170.96570        0.32720      4415.9893
         4403.0         94.809      171.50250        0.33390      4407.2920
         4403.5         96.351      177.69230        0.34480      4393.1113
         4404.0         96.674      181.42080        0.34710      4421.0986
         4404.5         95.864      181.32420        0.34130      4447.9028
         4405.0         95.539      179.67930        0.33900      4409.6494
         4405.5         96.124      178.00050        0.34320      4394.1040
         4406.0         96.694      177.61140        0.34720      4411.2729
         4406.5         96.294      177.50620        0.34440      4429.6729
         4407.0         94.986      174.74270        0.33510      4490.7920
         4407.5         93.560      170.85550        0.32500      4481.4399
         4408.0         91.629      167.65930        0.31140      4371.6670
         4408.5         88.262      162.98710        0.28760      4364.8193
         4409.0         85.908      159.01360        0.27090      4444.2925
         4409.5         86.021      158.12880        0.27170      4474.5811
         4410.0         86.958      157.73020        0.27830      4430.8228
         4410.5         87.446      156.83590        0.28180      4458.5513
         4411.0         87.048      155.12790        0.27900      4510.7358
         4411.5         85.535      151.46160        0.26830      4489.9116
         4412.0         83.416      146.17560        0.25330      4457.5586
         4412.5         81.102      141.94620        0.23690      4522.7285
         4413.0         73.076      133.03760        0.18020      4470.1138
         4413.5         66.329      121.97050        0.13250      4460.7964
         4414.0         65.996      119.11620        0.13010      4513.3535
         4414.5         67.921      119.27090        0.14370      4554.3022
         4415.0         69.681      120.03280        0.15620      4475.3711
         4415.5         72.718      122.12990        0.17760      4491.9199
         4416.0         75.043      123.60960        0.19410      4649.6934
         4416.5         74.852      123.54810        0.19270      4629.4785
         4417.0         73.782      122.72810        0.18520      4480.1763
         4417.5         72.341      121.75460        0.17500      4539.8291
         4418.0         71.480      121.17290        0.16890      4621.4121
         4418.5         73.205      121.61080        0.18110      4529.5410
         4419.0         79.214      131.38970        0.22360      4439.0698
         4419.5         85.142      139.66090        0.26550      4540.3369
         4420.0         88.805      147.33230        0.29140      4568.5278
         4420.5         92.563      162.52950        0.31800      4509.3379
         4421.0         96.791      172.15520        0.34790      4555.6562
         4421.5         99.361      180.93610        0.36610      4545.1313
         4422.0         99.840      184.47150        0.36940      4500.9102
         4422.5         98.834      184.06060        0.36230      4499.8164
         4423.0         97.175      183.36570        0.35060      4532.3047
         4423.5         97.084      184.22130        0.35000      4546.1802
         4424.0         99.373      184.98470        0.36610      4519.3882
         4424.5        100.751      185.11590        0.37590      4449.9551
         4425.0        100.314      184.97370        0.37280      4524.9053
         4425.5         99.507      184.39540        0.36710      4590.4570
         4426.0         98.486      182.59220        0.35990      4524.9272
         4426.5         97.097      179.94670        0.35000      4460.5596
