###############################################
##         ENVERUS                           ##
##         ESS - Open Hole                   ##
##         PERMIAN / MIDLAND                 ##
##         Nov 04 2023  V4.0                 ##
##         42-383-38290-90-00                ##
###############################################
## Copyright 2017-2023  ENVERUS.  All Rights Reserved. 
## Confidential - Property of ENVERUS, use governed by terms and 
## conditions found within the existing Information Services Subscription Agreement 
## (as may be amended, the “ISSA”) between Customer and ENVERUS. 
## 
~VERSION INFORMATION
# MNEM.UNIT                               DATA : DESCRIPTION OF MNEMONIC
#-----.-----     ----------------------------- : -----------------------------
VERS.                                     2.00 : CWLS LOG ASCII STANDARD - VERSION 2.00
WRAP.                                       NO : MULTIPLE LINES PER DEPTH STEP
VEND.                                  ENVERUS : VENDOR
TYPE.                          ESS - OPEN HOLE : ENVERUS ESSENTIAL CURVES – ACCESSIBLE THROUGH ENVERUS PRISM(TM)
DOC.                                  51094660 : ENVERUS HEADER RAW DOCUMENT ID
#___________________________________________________________________________________________________ 
~WELL INFORMATION 
# m1FPRISIcKBcMzk40yd34Gtphn5JoOH7jww50mYGKLfe2DZfACMCifCPsuzsX4y0yEiREccSdbTgxIOvDda2cA== 
# MNEM.UNIT                                              DATA : DESCRIPTION OF MNEMONIC 
#-----.-----                    ----------------------------- : ----------------------------- 
CNTY.                                                  REAGAN : COUNTY 
STATE.                                                  TEXAS : STATE 
CNTRY.                                                    USA : COUNTRY 
API.                                             42-383-38290 : API (10 Digit) 
API_14.                                    42-383-38290-90-00 : API (14 Digits) 
API_14_std.                                 42-383-38290-9000 : API (14 Digits Standard) 
UWI.                                           42383382909000 : UNIQUE WELL ID 
WELL.                                    UNIVERSITY 43-14 #6H : WELL NAME
STRT.FT                                                 900.0 : START DEPTH
STOP.FT                                                7359.0 : STOP DEPTH
STEP.FT                                                   0.5 : STEP BETWEEN DEPTHS
NULL.                                                 -999.25 : NULL VALUE
COMP.                       DEVON ENERGY PRODUCTION CO., L.P. : COMPANY 
FLD.                                           LIN (WOLFCAMP) : FIELD 
LOC.                                       201 FSL & 1115 FWL : LOCATION 
SRVC.                                             BAKER ATLAS : SERVICE COMPANY 
DATE.                                             25-AUG-2013 : LOG DATE 
PREV_APII.                                     42383382900000 : API NUMBER 
PREV_UWI.                                      42383382900000 : UNIQUE WELL ID
#___________________________________________________________________________________________________ 
~PARAMETER INFORMATION 
# MNEM.UNIT                                              DATA : DESCRIPTION OF MNEMONIC 
#-----.-----                    ----------------------------- : ----------------------------- 
HIDE.                                  COMPENSATED Z-DENSILOG : HEADER IDENTIFER 
HID1.                                 COMPENSATED NEUTRON LOG : HEADER IDENTIFER 
HID2.                                      DIGITAL SPECTRALOG : HEADER IDENTIFER 
HID3.                                           GAMMA RAY LOG : HEADER IDENTIFER 
CLAB.                                                  COUNTY : COUNTY LABEL (COMMENTS) 
SLAB.                                                   STATE : STATE LABEL (COMMENTS) 
FILE.                                                 MD10587 : FILE NUMBER 
CMT2.                                             FINAL PRINT : COMMENT 2 
FL1.                                          SEC.14, BLK. 43 : FIELD LOCATION 1 
FL3.                                  UNIVERSITY LAND SURVEY. : FIELD LOCATION 3 
OS2.                                                  HDIL/GR : OTHER SERVICES LINE 2 
OS3.                                                  XMAC/GR : OTHER SERVICES LINE 3 
OS4.                                                      BHP : OTHER SERVICES LINE 4 
PDAT.                                                    G.L. : PERMANENT DATUM 
EPD.FT                                                   2678 : ELEVATION OF PERM. DATUM 
LMF.                                                     K.B. : LOG MEASURED FROM 
APD.FT                                                     25 : ABOVE PERMANENT DATUM 
DMF.                                            KELLY BUSHING : DRILLING MEASURED FROM 
EKB.FT                                                   2703 : ELEVATION OF KELLY BUSHING 
EDF.FT                                                   2702 : ELEVATION OF DERRICK FLOOR 
EGL.FT                                                   2678 : ELEVATION OF GROUND LEVEL 
RUN.                                                        1 : RUN NUMBER 
TRIP.                                                       1 : TRIP NUMBER 
SON.                                                   636509 : SERVICE ORDER NUMBER 
TDD.FT                                                   7363 : TOTAL DEPTH - DRILLER 
TDL.FT                                                   7363 : TOTAL DEPTH - LOGGER 
BLI.FT                                                   7273 : BOTTOM LOG INTERVAL 
TLI.FT                                                    924 : TOP LOG INTERVAL 
CSIZ.IN                                                 9.625 : CASING SIZE 
CBDR.FT                                                   927 : CASING BOTTOM - DRILLER 
CBLO.FT                                                   924 : CASING BOTTOM - LOGGER 
BS.IN                                                    8.75 : BIT SIZE 
DFT.                                            OIL BASED MUD : DRILLING FLUID TYPE 
DFD.LB/G                                                    9 : DRILLING FLUID DENSITY 
DFV.S                                                      20 : DRILLING FLUID VISCOSITY 
MSS.                                                      OBM : MUD SAMPLE SOURCE 
MFSS.                                                      -- : MUD FILTRATE SAMPLE SOURCE 
MCSS.                                                      -- : MUD CAKE SAMPLE SOURCE 
TSC.                                                  7 HOURS : TIME SINCE CIRCULATION 
MRT.DEGF                                                  152 : MAXIMUM RECORDED TEMPERATURE 
LUN.                                                  HL-6713 : LOGGING UNIT NUMBER 
LUL.                                              MIDLAND, TX : LOGGING UNIT LOCATION 
ENGI.                                               O. ROBLES : ENGINEERS NAME 
WITN.                                                W. LUTKE : WITNESS NAME 
TSTR.                                           ZDL/CN/DSL/GR : TITLE SERVICE MNEMONIC 
TSTG.                                                      NA : TITLE SERVICE MNEMONIC 
STUS.                                                   FINAL : STATUS 
LCNM.                                             BAKER ATLAS : LOGGING COMPANY NAME 
LCC.                                                      150 : LOGGING COMPANY CODE 
OPMD.                                                 OH.WIRE : OPERATION MODE 
PANA.                                               O. ROBLES : PROCESSING ANALYST 
PCON.                                             BAKER ATLAS : PROCESSING CONTRACTOR
#___________________________________________________________________________________________________ 
~CURVE INFORMATION 
# MNEM.UNIT           : CURVE DESCRIPTION 
#-----.-----          : ----------------------------- 
 DEPT.FT               : MEASURED DEPTH 
 CALI.IN               : CALIPER (CALX - CALIPER FROM X-AXIS OF XY CALIPER(S)) 
 GR.API                : GAMMA RAY (GAMMA RAY) 
 SGR.API               : SPECTRAL GAMMA RAY (KTH - STRIPPED POTASSIUM-THORIUM) 
 SGR_TH_PPM.PPM        : SPECTRAL GAMMA RAY - THORIUM IN PPM (TH - THORIUM CONCENTRATION) 
 SGR_U_PPM.PPM         : SPECTRAL GAMMA RAY - URANIUM IN PPM (U - URANIUM CONTENT) 
 SP.MV                 : SPONTANEOUS POTENTIAL (SPDH - SPONTANEOUS POTENTIAL PROCESSED IN COMMON REMOTE) 
 DT.US/FT              : SONIC DELTA TRANSIT TIME (DT24 - SLOWNESS OVER 24-INCH INTERVAL) 
 PE.B/E                : PHOTOELECTRIC EFFECT/FACTOR (PHOTO ELECTRIC CROSS-SECTION) 
 RESS_10M2.OHMM        : RESISTIVITY SHALLOW - 10 IN 2 FT VERTICAL (M2R1 - VERTICAL 2-FOOT RESOLUTION MATCHED RESISTIVITY 10-INCH DOI) 
 RESS_20M2.OHMM        : RESISTIVITY SHALLOW - 20 IN 2 FT VERTICAL (M2R2 - VERTICAL 2-FOOT RESOLUTION MATCHED RESISTIVITY 20-INCH DOI) 
 RESM_30M2.OHMM        : RESISTIVITY MEDIUM - 30 IN 2 FT VERTICAL (M2R3 - VERTICAL 2-FOOT RESOLUTION MATCHED RESISTIVITY 30-INCH DOI) 
 RESD_60M2.OHMM        : RESISTIVITY DEEP - 60 IN 2 FT VERTICAL (M2R6 - VERTICAL 2-FOOT RESOLUTION MATCHED RESISTIVITY 60-INCH DOI) 
 RESD_90M2.OHMM        : RESISTIVITY DEEP - 90 IN 2 FT VERTICAL (M2R9 - VERTICAL 2-FOOT RESOLUTION MATCHED RESISTIVITY 90-INCH DOI) 
 RESD_120M2.OHMM       : RESISTIVITY DEEP - 120 IN 2 FT VERTICAL (M2RX - VERTICAL 2-FOOT RESOLUTION MATCHED RESISTIVITY 120-INCH DOI) 
 DPHI.V/V              : DENSITY POROSITY (PORZC - CORRECTED POROSITY) 
 NPHI.V/V              : NEUTRON POROSITY (CNC - BOREHOLE SIZE CORRECTED COMPENSATED NEUTRON POROSITY) 
 SPHI.V/V              : SONIC POROSITY (PORA - ACOUSTIC POROSITY) 
 DRHO.G/CC             : DENSITY CORRECTION (ZCOR - DENSITY CORRECTION) 
 RHOB.G/CC             : BULK DENSITY (ZDNC - BOREHOLE SIZE/MUD WEIGHT CORRECTED DENSITY) 
 TEMP.DEGF             : TEMPERATURE (WTBH - TEMPERATURE OF BOREHOLE) 
 #___________________________________________________________________________________________________ 
~A         DEPT           CALI             GR            SGR     SGR_TH_PPM      SGR_U_PPM             SP             DT             PE      RESS_10M2      RESS_20M2      RESM_30M2      RESD_60M2      RESD_90M2     RESD_120M2           DPHI           NPHI           SPHI           DRHO           RHOB           TEMP
# ...
         5580.0          9.002         97.514         93.906         10.685          0.710        -50.921         77.756         3.0520          5.321          5.260          5.208          5.163          5.193          5.171        0.09154        0.19488        0.21177        0.00700         2.5530        138.628
         5580.5          9.014         99.859         95.636         10.655          0.780        -52.424         79.288         2.9880          5.235          5.115          5.058          5.016          5.045          5.028        0.08982        0.19469        0.22253        0.00900         2.5560        138.654
         5581.0          9.019        104.222         99.118         10.825          0.881        -54.634         80.985         2.9290          5.216          5.017          4.944          4.908          4.937          4.925        0.09036        0.20374        0.23445        0.00900         2.5550        138.764
         5581.5          9.022        107.685        101.336         11.027          1.031        -55.622         82.266         2.8880          5.391          5.096          5.001          4.971          5.001          4.993        0.09295        0.21821        0.24344        0.00700         2.5510        138.982
         5582.0          9.024        108.828        100.821         11.118          1.239        -55.712         82.969         2.8960          5.865          5.448          5.325          5.298          5.334          5.329        0.09774        0.23181        0.24838        0.00600         2.5430        139.408
         5582.5          9.012        110.869        100.393         11.237          1.539        -56.270         83.302         2.9870          6.742          6.162          6.001          5.975          6.022          6.021        0.10430        0.24313        0.25071        0.00600         2.5320        139.678
         5583.0          8.994        115.871        101.548         11.346          1.959        -57.263         83.544         3.1200          7.755          7.016          6.819          6.795          6.856          6.862        0.10880        0.25519        0.25242        0.00800         2.5240        139.363
         5583.5          8.988        119.683        101.494         11.257          2.353        -58.698         83.786         3.1740          8.062          7.335          7.142          7.122          7.189          7.201        0.10819        0.26038        0.25411        0.01000         2.5250        139.005
         5584.0          8.992        118.027         97.133         10.952          2.673        -60.734         83.876         3.0960          7.441          6.885          6.736          6.721          6.778          6.794        0.10478        0.24970        0.25475        0.00900         2.5310        139.077
         5584.5          8.986        113.717         89.984         10.384          3.044        -62.288         83.456         2.9910          6.673          6.255          6.144          6.129          6.175          6.192        0.10142        0.23101        0.25180        0.00700         2.5370        139.380
         5585.0          8.960        109.787         83.501          9.581          3.359        -62.123         82.089         2.9680          6.357          5.988          5.890          5.874          5.916          5.934        0.09772        0.21575        0.24220        0.00700         2.5430        139.313
         5585.5          8.936        105.867         79.115          8.818          3.440        -61.012         79.725         3.0250          6.685          6.291          6.187          6.167          6.214          6.237        0.09263        0.20803        0.22560        0.00900         2.5520        138.816
         5586.0          8.931        100.960         76.228          8.466          3.294        -60.430         77.063         3.1560          7.666          7.229          7.104          7.079          7.143          7.175        0.08378        0.20972        0.20690        0.01100         2.5670        138.419
         5586.5          8.937         97.574         75.073          8.436          3.107        -60.472         75.379         3.3190          8.556          8.211          8.081          8.055          8.145          8.182        0.07342        0.21303        0.19508        0.01200         2.5840        138.615
         5587.0          8.946         99.537         78.743          8.734          2.869        -60.341         75.617         3.3470          8.185          8.111          8.036          8.021          8.112          8.154        0.07468        0.21119        0.19675        0.01000         2.5820        138.910
         5587.5          8.950        106.262         88.593          9.599          2.419        -59.760         77.604         3.2050          7.044          7.143          7.122          7.122          7.201          7.234        0.08961        0.21135        0.21070        0.00500         2.5570        138.847
         5588.0          8.945        112.959         97.858         10.369          2.077        -58.863         80.165         3.0320          6.337          6.481          6.498          6.507          6.587          6.614        0.10220        0.22288        0.22869        0.00500         2.5350        138.556
         5588.5          8.937        116.759        101.549         10.456          2.063        -58.213         82.106         2.9000          6.292          6.420          6.457          6.472          6.558          6.582        0.10547        0.23605        0.24232        0.00900         2.5300        138.420
         5589.0          8.936        117.972        101.466         10.161          2.194        -58.150         82.950         2.8070          6.533          6.604          6.640          6.657          6.752          6.772        0.10308        0.23538        0.24824        0.01100         2.5340        138.554
         5589.5          8.938        115.651         96.493          9.419          2.518        -58.256         82.912         2.7800          6.543          6.520          6.534          6.551          6.648          6.662        0.09682        0.22788        0.24798        0.01300         2.5440        138.800
         5590.0          8.941        110.638         87.862          8.379          3.006        -58.075         82.208         2.8340          6.361          6.245          6.232          6.245          6.338          6.347        0.09078        0.22593        0.24304        0.01400         2.5550        138.855
         5590.5          8.936        108.018         82.660          7.784          3.350        -58.086         80.962         2.9170          6.370          6.167          6.132          6.142          6.234          6.237        0.09327        0.23299        0.23429        0.01200         2.5510        138.860
         5591.0          8.922        110.853         83.015          7.816          3.549        -59.131         79.661         3.0190          6.522          6.268          6.219          6.225          6.320          6.318        0.10206        0.24297        0.22515        0.00800         2.5350        138.915
         5591.5          8.920        114.997         85.199          8.327          3.655        -61.270         78.961         3.1470          6.482          6.242          6.193          6.193          6.287          6.280        0.10777        0.24461        0.22023        0.00600         2.5260        138.763
         5592.0          8.929        116.308         86.806          9.034          3.601        -62.870         79.212         3.1980          6.163          5.992          5.953          5.949          6.035          6.023        0.10807        0.23703        0.22200        0.00400         2.5250        138.660
         5592.5          8.933        115.289         87.634          9.725          3.437        -63.023         79.973         3.0870          5.755          5.659          5.634          5.625          5.702          5.686        0.10591        0.22455        0.22734        0.00400         2.5290        138.974
