###############################################
##         ENVERUS                           ##
##         ESS - Open Hole                   ##
##         PERMIAN / MIDLAND                 ##
##         Nov 03 2023  V4.0                 ##
##         42-235-34485-90-00                ##
###############################################
## Copyright 2017-2023  ENVERUS.  All Rights Reserved. 
## Confidential - Property of ENVERUS, use governed by terms and 
## conditions found within the existing Information Services Subscription Agreement 
## (as may be amended, the “ISSA”) between Customer and ENVERUS. 
## 
~VERSION INFORMATION
# MNEM.UNIT                               DATA : DESCRIPTION OF MNEMONIC
#-----.-----     ----------------------------- : -----------------------------
VERS.                                     2.00 : CWLS LOG ASCII STANDARD - VERSION 2.00
WRAP.                                       NO : MULTIPLE LINES PER DEPTH STEP
VEND.                                  ENVERUS : VENDOR
TYPE.                          ESS - OPEN HOLE : ENVERUS ESSENTIAL CURVES – ACCESSIBLE THROUGH ENVERUS PRISM(TM)
DOC.                                  51094636 : ENVERUS HEADER RAW DOCUMENT ID
#___________________________________________________________________________________________________ 
~WELL INFORMATION 
# FMikr3+JyUztgncWDJlJj4UAVtjFs/xFdFTkOn/rCNZKdsWfgftU4ooQRZEXdd26HCoruynA4NvJdeWU6aB/BQ== 
# MNEM.UNIT                                              DATA : DESCRIPTION OF MNEMONIC 
#-----.-----                    ----------------------------- : ----------------------------- 
CNTY.                                                   IRION : COUNTY 
STATE.                                                  TEXAS : STATE 
CNTRY.                                                    USA : COUNTRY 
API.                                             42-235-34485 : API (10 Digit) 
API_14.                                    42-235-34485-90-00 : API (14 Digits) 
API_14_std.                                 42-235-34485-9000 : API (14 Digits Standard) 
UWI.                                           42235344859000 : UNIQUE WELL ID 
WELL.                                    UNIVERSITY 40-13 #1H : WELL NAME
STRT.FT                                                 187.0 : START DEPTH
STOP.FT                                                7212.0 : STOP DEPTH
STEP.FT                                                   0.5 : STEP BETWEEN DEPTHS
NULL.                                                 -999.25 : NULL VALUE
PREV_UWI.                                        42-235-34485 : API WELLHOLE NUMBER 
COMP.                                     EOG RESOURCES, INC. : COMPANY NAME 
COUN.                                                   IRION : COUNTY 
DAT2.                                                   02000 : LOGGING DATE 2 
DAT3.                                                   02000 : LOGGING DATE 3 
DAT4.                                                   02000 : LOGGING DATE 4 
DATE.                                              2/-1/-2010 : LOGGING DATE 
DFT.                                                    FRESH : DRILLING FLUID TYPE 
DMF.                                                       KB : DRILLING MEASURED 
ENGI.                                              R. ATKISON : ENGINEER 1 NAME 
LOC.                                        660 FNL & 660 FEL : FIELD LOCATION 
FL1.                                        660 FNL & 660 FEL : FIELD LOCATION LINE 1 
FL2.                                        SECT.13, BLOCK 40 : FIELD LOCATION LINE 2 
FLD.                                            LIN  WOLFCAMP : FIELD NAME 
HDAT.                                                   02000 : DATUM 
LMF.                                                       KB : LOG MEASURED FROM 
LUL.                                                   ODESSA : LOGGING UNIT LOCATION 
MCSS.                                                    MEAS : MUD CAKE SAMPLE SOURCE 
MFSS.                                                    MEAS : MUD FILTRATE SAMPLE SOURCE 
MSS.                                                  MUD PIT : SOURCE OF MUD SAMPLE 
OS1.                                             CSNG-DSN-SDL : OTHER SERVICES LINE 1 
OS2.                                                 DLL-MSFL : OTHER SERVICES LINE 2 
PDAT.                                                      GL : PERMANENT DATUM 
R1.             ANNULAR HOLE VOLUME CALCULATED FOR 5.5 INCH CASING. : REMARKS LINE 1 
R2.             LOGGING SCALES AND INTERVALS AS PER CUSTOMER REQUEST. : REMARKS LINE 2 
R3.             GR/CSNG/DSNT/SDLT/WSTT/DLLT/MGRD RAN IN COMBINATION AS SHOWN : REMARKS LINE 3 
RANG.                                                     N/A : RANGE 
RDT2.                                                   02000 : CASING DATE 2 
RDT3.                                                   02000 : CASING DATE 3 
RDT4.                                                   02000 : CASING DATE 4 
RDT5.                                                   02000 : CASING DATE 5 
SECT.                                                     N/A : SECTION 
SON.                                                  7176848 : SERVICE/TICKET ORDER NUMBER 
PROV.                                                   TEXAS : STATE 
TOWN.                                                     N/A : TOWNSHIP 
WITN.                                              GREG PALKO : WITNESS 1 NAME
#___________________________________________________________________________________________________ 
~PARAMETER INFORMATION 
# MNEM.UNIT                                              DATA : DESCRIPTION OF MNEMONIC 
#-----.-----                    ----------------------------- : -----------------------------
#___________________________________________________________________________________________________ 
~CURVE INFORMATION 
# MNEM.UNIT           : CURVE DESCRIPTION 
#-----.-----          : ----------------------------- 
 DEPT.FT               : MEASURED DEPTH 
 DT__E.US/FT           : SONIC DELTA TRANSIT TIME (DTC - DELTA-T COMPRESSIONAL - WAVE SONIC) 
 DTS__E.US/FT          : SHEAR SONIC TRAVEL TIME (SINGLE DIPOLE SONIC - WAVE SONIC) 
 SPHI_LS__E.V/V        : SONIC POROSITY - LIMESTONE (SPHIDTC - SONIC POROSITY MTX=47.6 (DTC)) 
 TENS__E.LBS           : CABLE TENSION (TENSION) 
 #___________________________________________________________________________________________________ 
~A         DEPT          DT__E         DTS__E     SPHI_LS__E        TENS__E
# ...
         7130.0         80.099      147.65810        0.22980      5820.2119
         7130.5         80.253      147.69490        0.23090      5800.0532
         7131.0         81.861      148.66480        0.24230      5789.3813
         7131.5         84.480      150.89110        0.26080      5896.0864
         7132.0         85.904      153.44450        0.27090      5865.6172
         7132.5         85.947      154.64130        0.27120      5788.9297
         7133.0         85.648      154.45980        0.26910      5783.1538
         7133.5         85.534      154.59700        0.26830      5858.5093
         7134.0         85.447      153.79300        0.26770      5826.5630
         7134.5         84.880      152.75260        0.26360      5791.0957
         7135.0         84.474      151.53620        0.26080      5767.7563
         7135.5         84.944      150.22070        0.26410      5838.9941
         7136.0         86.100      149.06720        0.27230      5869.5654
         7136.5         85.981      148.40290        0.27140      5845.4692
         7137.0         84.394      148.17370        0.26020      5796.7358
         7137.5         83.273      147.17510        0.25230      5784.5420
         7138.0         82.640      144.36190        0.24780      5837.3809
         7138.5         82.870      142.70720        0.24940      5822.4683
         7139.0         83.480      143.71020        0.25380      5774.6479
         7139.5         83.524      144.84520        0.25410      5701.7295
         7140.0         83.678      145.23250        0.25510      5790.7915
         7140.5         82.925      143.89610        0.24980      5851.2671
         7141.0         79.771      139.27160        0.22750      5873.7275
         7141.5         75.101      135.55100        0.19450      5807.8364
         7142.0         71.402      132.76630        0.16830      5756.0239
         7142.5         69.373      130.77330        0.15400      5782.8950
         7143.0         68.279      128.64890        0.14620      5801.4399
         7143.5         68.354      128.39140        0.14680      5747.4619
         7144.0         68.866      128.74940        0.15040      5740.0952
         7144.5         68.542      129.25240        0.14810      5747.3823
         7145.0         67.819      129.30600        0.14300      5744.3364
         7145.5         67.626      129.01380        0.14160      5789.3022
         7146.0         67.709      129.04000        0.14220      5763.7847
         7146.5         67.601      130.04200        0.14140      5743.8750
         7147.0         67.557      129.28020        0.14110      5749.5376
         7147.5         67.985      127.83800        0.14420      5814.9438
         7148.0         68.256      127.99270        0.14610      5786.5039
         7148.5         67.998      127.89600        0.14430      5792.6411
         7149.0         67.787      126.23030        0.14280      5800.1313
         7149.5         67.784      125.04680        0.14270      5837.8096
         7150.0         68.008      125.59630        0.14430      5856.7842
         7150.5         68.589      126.31370        0.14840      5816.6802
         7151.0         69.184      125.84930        0.15260      5817.3687
         7151.5         69.013      125.50880        0.15140      5840.2466
         7152.0         68.839      125.58020        0.15020      5788.3999
         7152.5         69.453      125.48400        0.15450      5757.6367
         7153.0         69.809      125.30170        0.15710      5785.8057
         7153.5         69.362      125.14310        0.15390      5827.7363
         7154.0         68.866      125.10270        0.15040      5855.4414
         7154.5       -999.250     -999.25000       -7.40170      5823.7539
         7155.0       -999.250     -999.25000       -7.40170      5735.9551
         7155.5       -999.250     -999.25000     -999.25000      5730.2476
         7156.0       -999.250     -999.25000     -999.25000      5904.1064
         7156.5       -999.250     -999.25000     -999.25000      5915.2529
         7157.0       -999.250     -999.25000     -999.25000      5850.1172
         7157.5       -999.250     -999.25000     -999.25000      5692.5020
         7158.0       -999.250     -999.25000     -999.25000      5772.3467
         7158.5       -999.250     -999.25000     -999.25000      5942.5063
         7159.0       -999.250     -999.25000     -999.25000      5950.4150
         7159.5       -999.250     -999.25000     -999.25000      5835.7002
         7160.0       -999.250     -999.25000     -999.25000      5802.6587
         7160.5       -999.250     -999.25000     -999.25000      5852.7910
         7161.0       -999.250     -999.25000     -999.25000      5902.2568
         7161.5       -999.250     -999.25000     -999.25000      5966.6816
         7162.0       -999.250     -999.25000     -999.25000      5922.1445
         7162.5       -999.250     -999.25000     -999.25000      5830.2744
         7163.0       -999.250     -999.25000     -999.25000      5866.1362
         7163.5       -999.250     -999.25000     -999.25000      5972.4907
         7164.0       -999.250     -999.25000     -999.25000      5991.9844
         7164.5       -999.250     -999.25000     -999.25000      5891.8901
         7165.0       -999.250     -999.25000     -999.25000      5746.7622
         7165.5       -999.250     -999.25000     -999.25000      5823.2007
         7166.0       -999.250     -999.25000     -999.25000      6042.6465
         7166.5       -999.250     -999.25000     -999.25000      6142.4814
         7167.0       -999.250     -999.25000     -999.25000      6014.9746
         7167.5       -999.250     -999.25000     -999.25000      5935.7720
         7168.0       -999.250     -999.25000     -999.25000      5877.3936
         7168.5       -999.250     -999.25000     -999.25000      5944.7402
         7169.0       -999.250     -999.25000     -999.25000      5993.1807
         7169.5       -999.250     -999.25000     -999.25000      5959.0674
         7170.0       -999.250     -999.25000     -999.25000      5955.0957
         7170.5       -999.250     -999.25000     -999.25000      6013.3618
         7171.0       -999.250     -999.25000     -999.25000      6055.6646
         7171.5       -999.250     -999.25000     -999.25000      5993.8462
         7172.0       -999.250     -999.25000     -999.25000      5905.1001
         7172.5       -999.250     -999.25000     -999.25000      5841.3062
         7173.0       -999.250     -999.25000     -999.25000      5943.4878
         7173.5       -999.250     -999.25000     -999.25000      6012.0078
         7174.0       -999.250     -999.25000     -999.25000      5975.2549
         7174.5       -999.250     -999.25000     -999.25000      5878.5781
         7175.0       -999.250     -999.25000     -999.25000      5931.5415
         7175.5       -999.250     -999.25000     -999.25000      5945.2031
         7176.0       -999.250     -999.25000     -999.25000      5962.7104
         7176.5       -999.250     -999.25000     -999.25000      5938.1978
         7177.0       -999.250     -999.25000     -999.25000      5935.2422
         7177.5       -999.250     -999.25000     -999.25000      5927.1309
         7178.0       -999.250     -999.25000     -999.25000      6007.3037
         7178.5       -999.250     -999.25000     -999.25000      5966.2192
         7179.0       -999.250     -999.25000     -999.25000      5871.7764
         7179.5       -999.250     -999.25000     -999.25000      5923.6108
         7180.0       -999.250     -999.25000     -999.25000      5968.3628
         7180.5       -999.250     -999.25000     -999.25000      5989.7622
         7181.0       -999.250     -999.25000     -999.25000      6004.8218
         7181.5       -999.250     -999.25000     -999.25000      5974.3975
         7182.0       -999.250     -999.25000     -999.25000      5905.1001
         7182.5       -999.250     -999.25000     -999.25000      5955.6938
