###############################################
##         ENVERUS                           ##
##         ESS - Open Hole                   ##
##         PERMIAN / MIDLAND                 ##
##         Nov 04 2023  V4.0                 ##
##         42-383-38290-90-00                ##
###############################################
## Copyright 2017-2023  ENVERUS.  All Rights Reserved. 
## Confidential - Property of ENVERUS, use governed by terms and 
## conditions found within the existing Information Services Subscription Agreement 
## (as may be amended, the “ISSA”) between Customer and ENVERUS. 
## 
~VERSION INFORMATION
# MNEM.UNIT                               DATA : DESCRIPTION OF MNEMONIC
#-----.-----     ----------------------------- : -----------------------------
VERS.                                     2.00 : CWLS LOG ASCII STANDARD - VERSION 2.00
WRAP.                                       NO : MULTIPLE LINES PER DEPTH STEP
VEND.                                  ENVERUS : VENDOR
TYPE.                          ESS - OPEN HOLE : ENVERUS ESSENTIAL CURVES – ACCESSIBLE THROUGH ENVERUS PRISM(TM)
DOC.                                  51094660 : ENVERUS HEADER RAW DOCUMENT ID
#___________________________________________________________________________________________________ 
~WELL INFORMATION 
# m1FPRISIcKBcMzk40yd34Gtphn5JoOH7jww50mYGKLfe2DZfACMCifCPsuzsX4y0yEiREccSdbTgxIOvDda2cA== 
# MNEM.UNIT                                              DATA : DESCRIPTION OF MNEMONIC 
#-----.-----                    ----------------------------- : ----------------------------- 
CNTY.                                                  REAGAN : COUNTY 
STATE.                                                  TEXAS : STATE 
CNTRY.                                                    USA : COUNTRY 
API.                                             42-383-38290 : API (10 Digit) 
API_14.                                    42-383-38290-90-00 : API (14 Digits) 
API_14_std.                                 42-383-38290-9000 : API (14 Digits Standard) 
UWI.                                           42383382909000 : UNIQUE WELL ID 
WELL.                                    UNIVERSITY 43-14 #6H : WELL NAME
STRT.FT                                                 900.0 : START DEPTH
STOP.FT                                                7359.0 : STOP DEPTH
STEP.FT                                                   0.5 : STEP BETWEEN DEPTHS
NULL.                                                 -999.25 : NULL VALUE
COMP.                       DEVON ENERGY PRODUCTION CO., L.P. : COMPANY 
FLD.                                           LIN (WOLFCAMP) : FIELD 
LOC.                                       201 FSL & 1115 FWL : LOCATION 
SRVC.                                             BAKER ATLAS : SERVICE COMPANY 
DATE.                                             25-AUG-2013 : LOG DATE 
PREV_APII.                                     42383382900000 : API NUMBER 
PREV_UWI.                                      42383382900000 : UNIQUE WELL ID
#___________________________________________________________________________________________________ 
~PARAMETER INFORMATION 
# MNEM.UNIT                                              DATA : DESCRIPTION OF MNEMONIC 
#-----.-----                    ----------------------------- : ----------------------------- 
HIDE.                                  COMPENSATED Z-DENSILOG : HEADER IDENTIFER 
HID1.                                 COMPENSATED NEUTRON LOG : HEADER IDENTIFER 
HID2.                                      DIGITAL SPECTRALOG : HEADER IDENTIFER 
HID3.                                           GAMMA RAY LOG : HEADER IDENTIFER 
CLAB.                                                  COUNTY : COUNTY LABEL (COMMENTS) 
SLAB.                                                   STATE : STATE LABEL (COMMENTS) 
FILE.                                                 MD10587 : FILE NUMBER 
CMT2.                                             FINAL PRINT : COMMENT 2 
FL1.                                          SEC.14, BLK. 43 : FIELD LOCATION 1 
FL3.                                  UNIVERSITY LAND SURVEY. : FIELD LOCATION 3 
OS2.                                                  HDIL/GR : OTHER SERVICES LINE 2 
OS3.                                                  XMAC/GR : OTHER SERVICES LINE 3 
OS4.                                                      BHP : OTHER SERVICES LINE 4 
PDAT.                                                    G.L. : PERMANENT DATUM 
EPD.FT                                                   2678 : ELEVATION OF PERM. DATUM 
LMF.                                                     K.B. : LOG MEASURED FROM 
APD.FT                                                     25 : ABOVE PERMANENT DATUM 
DMF.                                            KELLY BUSHING : DRILLING MEASURED FROM 
EKB.FT                                                   2703 : ELEVATION OF KELLY BUSHING 
EDF.FT                                                   2702 : ELEVATION OF DERRICK FLOOR 
EGL.FT                                                   2678 : ELEVATION OF GROUND LEVEL 
RUN.                                                        1 : RUN NUMBER 
TRIP.                                                       1 : TRIP NUMBER 
SON.                                                   636509 : SERVICE ORDER NUMBER 
TDD.FT                                                   7363 : TOTAL DEPTH - DRILLER 
TDL.FT                                                   7363 : TOTAL DEPTH - LOGGER 
BLI.FT                                                   7273 : BOTTOM LOG INTERVAL 
TLI.FT                                                    924 : TOP LOG INTERVAL 
CSIZ.IN                                                 9.625 : CASING SIZE 
CBDR.FT                                                   927 : CASING BOTTOM - DRILLER 
CBLO.FT                                                   924 : CASING BOTTOM - LOGGER 
BS.IN                                                    8.75 : BIT SIZE 
DFT.                                            OIL BASED MUD : DRILLING FLUID TYPE 
DFD.LB/G                                                    9 : DRILLING FLUID DENSITY 
DFV.S                                                      20 : DRILLING FLUID VISCOSITY 
MSS.                                                      OBM : MUD SAMPLE SOURCE 
MFSS.                                                      -- : MUD FILTRATE SAMPLE SOURCE 
MCSS.                                                      -- : MUD CAKE SAMPLE SOURCE 
TSC.                                                  7 HOURS : TIME SINCE CIRCULATION 
MRT.DEGF                                                  152 : MAXIMUM RECORDED TEMPERATURE 
LUN.                                                  HL-6713 : LOGGING UNIT NUMBER 
LUL.                                              MIDLAND, TX : LOGGING UNIT LOCATION 
ENGI.                                               O. ROBLES : ENGINEERS NAME 
WITN.                                                W. LUTKE : WITNESS NAME 
TSTR.                                           ZDL/CN/DSL/GR : TITLE SERVICE MNEMONIC 
TSTG.                                                      NA : TITLE SERVICE MNEMONIC 
STUS.                                                   FINAL : STATUS 
LCNM.                                             BAKER ATLAS : LOGGING COMPANY NAME 
LCC.                                                      150 : LOGGING COMPANY CODE 
OPMD.                                                 OH.WIRE : OPERATION MODE 
PANA.                                               O. ROBLES : PROCESSING ANALYST 
PCON.                                             BAKER ATLAS : PROCESSING CONTRACTOR
#___________________________________________________________________________________________________ 
~CURVE INFORMATION 
# MNEM.UNIT           : CURVE DESCRIPTION 
#-----.-----          : ----------------------------- 
 DEPT.FT               : MEASURED DEPTH 
 CALI.IN               : CALIPER (CALX - CALIPER FROM X-AXIS OF XY CALIPER(S)) 
 GR.API                : GAMMA RAY (GAMMA RAY) 
 SGR.API               : SPECTRAL GAMMA RAY (KTH - STRIPPED POTASSIUM-THORIUM) 
 SGR_TH_PPM.PPM        : SPECTRAL GAMMA RAY - THORIUM IN PPM (TH - THORIUM CONCENTRATION) 
 SGR_U_PPM.PPM         : SPECTRAL GAMMA RAY - URANIUM IN PPM (U - URANIUM CONTENT) 
 SP.MV                 : SPONTANEOUS POTENTIAL (SPDH - SPONTANEOUS POTENTIAL PROCESSED IN COMMON REMOTE) 
 DT.US/FT              : SONIC DELTA TRANSIT TIME (DT24 - SLOWNESS OVER 24-INCH INTERVAL) 
 PE.B/E                : PHOTOELECTRIC EFFECT/FACTOR (PHOTO ELECTRIC CROSS-SECTION) 
 RESS_10M2.OHMM        : RESISTIVITY SHALLOW - 10 IN 2 FT VERTICAL (M2R1 - VERTICAL 2-FOOT RESOLUTION MATCHED RESISTIVITY 10-INCH DOI) 
 RESS_20M2.OHMM        : RESISTIVITY SHALLOW - 20 IN 2 FT VERTICAL (M2R2 - VERTICAL 2-FOOT RESOLUTION MATCHED RESISTIVITY 20-INCH DOI) 
 RESM_30M2.OHMM        : RESISTIVITY MEDIUM - 30 IN 2 FT VERTICAL (M2R3 - VERTICAL 2-FOOT RESOLUTION MATCHED RESISTIVITY 30-INCH DOI) 
 RESD_60M2.OHMM        : RESISTIVITY DEEP - 60 IN 2 FT VERTICAL (M2R6 - VERTICAL 2-FOOT RESOLUTION MATCHED RESISTIVITY 60-INCH DOI) 
 RESD_90M2.OHMM        : RESISTIVITY DEEP - 90 IN 2 FT VERTICAL (M2R9 - VERTICAL 2-FOOT RESOLUTION MATCHED RESISTIVITY 90-INCH DOI) 
 RESD_120M2.OHMM       : RESISTIVITY DEEP - 120 IN 2 FT VERTICAL (M2RX - VERTICAL 2-FOOT RESOLUTION MATCHED RESISTIVITY 120-INCH DOI) 
 DPHI.V/V              : DENSITY POROSITY (PORZC - CORRECTED POROSITY) 
 NPHI.V/V              : NEUTRON POROSITY (CNC - BOREHOLE SIZE CORRECTED COMPENSATED NEUTRON POROSITY) 
 SPHI.V/V              : SONIC POROSITY (PORA - ACOUSTIC POROSITY) 
 DRHO.G/CC             : DENSITY CORRECTION (ZCOR - DENSITY CORRECTION) 
 RHOB.G/CC             : BULK DENSITY (ZDNC - BOREHOLE SIZE/MUD WEIGHT CORRECTED DENSITY) 
 TEMP.DEGF             : TEMPERATURE (WTBH - TEMPERATURE OF BOREHOLE) 
 #___________________________________________________________________________________________________ 
~A         DEPT           CALI             GR            SGR     SGR_TH_PPM      SGR_U_PPM             SP             DT             PE      RESS_10M2      RESS_20M2      RESM_30M2      RESD_60M2      RESD_90M2     RESD_120M2           DPHI           NPHI           SPHI           DRHO           RHOB           TEMP
# ...
         3448.0          8.980         99.923         90.996         12.184          1.368       -182.168         80.882         3.0300          5.417          5.562          5.770          6.099          6.412          6.626        0.09879        0.22446        0.23372        0.01300         2.5410        117.470
         3448.5          8.978        103.174         96.289         12.826          1.094       -180.253         81.484         3.1230          5.308          5.371          5.561          5.872          6.154          6.341        0.10441        0.23944        0.23795        0.01000         2.5310        117.325
         3449.0          8.976         97.329         89.344         12.221          1.251       -177.152         80.356         3.2710          5.651          5.597          5.767          6.082          6.356          6.531        0.09876        0.25254        0.23002        0.00700         2.5410        117.251
         3449.5          8.980         85.383         75.539         11.037          1.571       -175.552         78.258         3.4080          7.086          6.901          7.101          7.480          7.798          7.995        0.08038        0.25620        0.21529        0.00600         2.5730        117.233
         3450.0          8.994         80.815         70.039         10.538          1.739       -175.601         77.217         3.4090          8.956          8.772          9.049          9.516          9.901         10.131        0.06485        0.24663        0.20799        0.00800         2.5990        117.100
         3450.5          9.005         90.921         75.574         11.109          2.254       -176.538         78.465         3.2690          8.427          8.618          8.905          9.339          9.721          9.929        0.07364        0.23630        0.21675        0.00500         2.5840        116.883
         3451.0          9.019        107.317         84.873         12.305          3.034       -178.301         81.178         3.1240          6.305          6.768          7.078          7.415          7.716          7.869        0.09644        0.23500        0.23580        0.00100         2.5450        116.755
         3451.5          9.051        118.115         92.803         13.077          3.316       -178.962         83.647         3.0930          4.901          5.441          5.755          6.018          6.261          6.378        0.10733        0.24029        0.25314        0.00400         2.5260        116.561
         3452.0          9.082        119.791         95.810         13.367          3.149       -177.233         84.953         3.2070          4.358          4.924          5.250          5.477          5.698          5.798        0.10118        0.24339        0.26231        0.01000         2.5370        116.127
         3452.5          9.079        115.680         96.143         13.787          2.696       -175.322         85.530         3.3200          4.230          4.781          5.107          5.314          5.529          5.619        0.09046        0.24376        0.26637        0.01300         2.5550        115.607
         3453.0          9.049        111.077         97.435         14.380          2.024       -175.448         86.275         3.2550          4.100          4.565          4.857          5.040          5.241          5.321        0.08519        0.25091        0.27160        0.01100         2.5640        115.646
         3453.5          9.018        108.891         99.881         14.947          1.441       -176.504         87.500         3.0790          3.849          4.184          4.418          4.574          4.754          4.821        0.08427        0.26490        0.28019        0.00800         2.5660        116.448
         3454.0          9.001        108.720        103.233         15.458          0.989       -177.087         88.883         2.9540          3.633          3.856          4.038          4.173          4.334          4.390        0.08433        0.27109        0.28991        0.00800         2.5660        117.384
         3454.5          8.997        108.318        106.188         15.897          0.576       -177.291         89.987         2.9310          3.563          3.714          3.862          3.986          4.137          4.186        0.08680        0.26458        0.29766        0.00700         2.5620        117.941
         3455.0          8.996        107.055        107.735         16.193          0.232       -177.103         90.687         2.9860          3.625          3.739          3.868          3.991          4.137          4.180        0.09291        0.26012        0.30258        0.00500         2.5510        118.127
         3455.5          8.993        105.790        108.292         16.355          0.002       -176.353         91.165         3.0710          3.713          3.812          3.933          4.057          4.201          4.239        0.09949        0.26940        0.30593        0.00200         2.5400        117.823
         3456.0          8.994        105.737        108.250         16.343          0.002       -174.783         91.686         3.1340          3.712          3.804          3.919          4.044          4.182          4.214        0.10133        0.28175        0.30959        0.00300         2.5370        117.141
         3456.5          8.997        106.896        109.437         16.030          0.002       -172.698         92.375         3.1390          3.608          3.694          3.804          3.925          4.054          4.080        0.09833        0.28892        0.31443        0.00600         2.5420        116.471
         3457.0          8.992        108.362        110.899         15.378          0.002       -171.505         93.205         3.1260          3.467          3.545          3.650          3.766          3.884          3.904        0.09491        0.30229        0.32026        0.01000         2.5480        116.255
         3457.5          8.994        108.678        111.227         14.560          0.002       -170.803         94.071         3.1950          3.356          3.423          3.524          3.635          3.743          3.759        0.09424        0.32262        0.32634        0.01100         2.5490        116.708
         3458.0          9.007        108.261        108.956         13.737          0.235       -168.801         94.824         3.3660          3.326          3.379          3.475          3.583          3.685          3.696        0.09725        0.33041        0.33163        0.00900         2.5440        117.546
         3458.5          9.016        108.783        105.309         12.872          0.752       -166.135         95.303         3.4910          3.394          3.430          3.521          3.630          3.728          3.735        0.10326        0.32579        0.33499        0.00500         2.5330        117.851
         3459.0          9.013        109.555        100.902         11.977          1.384       -164.585         95.307         3.4550          3.507          3.525          3.610          3.719          3.815          3.820        0.10837        0.31821        0.33502        0.00200         2.5250        117.707
         3459.5          9.005        109.636         96.493         11.335          1.932       -164.225         94.664         3.3640          3.603          3.600          3.679          3.788          3.883          3.886        0.10902        0.30410        0.33050        0.00100         2.5240        117.415
         3460.0          8.996        110.416         94.829         11.224          2.212       -164.636         93.380         3.3090          3.739          3.717          3.792          3.903          3.999          4.001        0.10666        0.28886        0.32149        0.00200         2.5280        117.011
         3460.5          8.998        110.465         95.058         11.701          2.186       -165.642         91.852         3.2170          4.016          3.989          4.071          4.188          4.289          4.291        0.10345        0.28024        0.31076        0.00300         2.5330        116.831
