###############################################
##         ENVERUS                           ##
##         ESS - Open Hole                   ##
##         PERMIAN / MIDLAND                 ##
##         Nov 03 2023  V4.0                 ##
##         42-235-34485-90-00                ##
###############################################
## Copyright 2017-2023  ENVERUS.  All Rights Reserved. 
## Confidential - Property of ENVERUS, use governed by terms and 
## conditions found within the existing Information Services Subscription Agreement 
## (as may be amended, the “ISSA”) between Customer and ENVERUS. 
## 
~VERSION INFORMATION
# MNEM.UNIT                               DATA : DESCRIPTION OF MNEMONIC
#-----.-----     ----------------------------- : -----------------------------
VERS.                                     2.00 : CWLS LOG ASCII STANDARD - VERSION 2.00
WRAP.                                       NO : MULTIPLE LINES PER DEPTH STEP
VEND.                                  ENVERUS : VENDOR
TYPE.                          ESS - OPEN HOLE : ENVERUS ESSENTIAL CURVES – ACCESSIBLE THROUGH ENVERUS PRISM(TM)
DOC.                                  51094636 : ENVERUS HEADER RAW DOCUMENT ID
#___________________________________________________________________________________________________ 
~WELL INFORMATION 
# FMikr3+JyUztgncWDJlJj4UAVtjFs/xFdFTkOn/rCNZKdsWfgftU4ooQRZEXdd26HCoruynA4NvJdeWU6aB/BQ== 
# MNEM.UNIT                                              DATA : DESCRIPTION OF MNEMONIC 
#-----.-----                    ----------------------------- : ----------------------------- 
CNTY.                                                   IRION : COUNTY 
STATE.                                                  TEXAS : STATE 
CNTRY.                                                    USA : COUNTRY 
API.                                             42-235-34485 : API (10 Digit) 
API_14.                                    42-235-34485-90-00 : API (14 Digits) 
API_14_std.                                 42-235-34485-9000 : API (14 Digits Standard) 
UWI.                                           42235344859000 : UNIQUE WELL ID 
WELL.                                    UNIVERSITY 40-13 #1H : WELL NAME
STRT.FT                                                 187.0 : START DEPTH
STOP.FT                                                7212.0 : STOP DEPTH
STEP.FT                                                   0.5 : STEP BETWEEN DEPTHS
NULL.                                                 -999.25 : NULL VALUE
PREV_UWI.                                        42-235-34485 : API WELLHOLE NUMBER 
COMP.                                     EOG RESOURCES, INC. : COMPANY NAME 
COUN.                                                   IRION : COUNTY 
DAT2.                                                   02000 : LOGGING DATE 2 
DAT3.                                                   02000 : LOGGING DATE 3 
DAT4.                                                   02000 : LOGGING DATE 4 
DATE.                                              2/-1/-2010 : LOGGING DATE 
DFT.                                                    FRESH : DRILLING FLUID TYPE 
DMF.                                                       KB : DRILLING MEASURED 
ENGI.                                              R. ATKISON : ENGINEER 1 NAME 
LOC.                                        660 FNL & 660 FEL : FIELD LOCATION 
FL1.                                        660 FNL & 660 FEL : FIELD LOCATION LINE 1 
FL2.                                        SECT.13, BLOCK 40 : FIELD LOCATION LINE 2 
FLD.                                            LIN  WOLFCAMP : FIELD NAME 
HDAT.                                                   02000 : DATUM 
LMF.                                                       KB : LOG MEASURED FROM 
LUL.                                                   ODESSA : LOGGING UNIT LOCATION 
MCSS.                                                    MEAS : MUD CAKE SAMPLE SOURCE 
MFSS.                                                    MEAS : MUD FILTRATE SAMPLE SOURCE 
MSS.                                                  MUD PIT : SOURCE OF MUD SAMPLE 
OS1.                                             CSNG-DSN-SDL : OTHER SERVICES LINE 1 
OS2.                                                 DLL-MSFL : OTHER SERVICES LINE 2 
PDAT.                                                      GL : PERMANENT DATUM 
R1.             ANNULAR HOLE VOLUME CALCULATED FOR 5.5 INCH CASING. : REMARKS LINE 1 
R2.             LOGGING SCALES AND INTERVALS AS PER CUSTOMER REQUEST. : REMARKS LINE 2 
R3.             GR/CSNG/DSNT/SDLT/WSTT/DLLT/MGRD RAN IN COMBINATION AS SHOWN : REMARKS LINE 3 
RANG.                                                     N/A : RANGE 
RDT2.                                                   02000 : CASING DATE 2 
RDT3.                                                   02000 : CASING DATE 3 
RDT4.                                                   02000 : CASING DATE 4 
RDT5.                                                   02000 : CASING DATE 5 
SECT.                                                     N/A : SECTION 
SON.                                                  7176848 : SERVICE/TICKET ORDER NUMBER 
PROV.                                                   TEXAS : STATE 
TOWN.                                                     N/A : TOWNSHIP 
WITN.                                              GREG PALKO : WITNESS 1 NAME
#___________________________________________________________________________________________________ 
~PARAMETER INFORMATION 
# MNEM.UNIT                                              DATA : DESCRIPTION OF MNEMONIC 
#-----.-----                    ----------------------------- : -----------------------------
#___________________________________________________________________________________________________ 
~CURVE INFORMATION 
# MNEM.UNIT           : CURVE DESCRIPTION 
#-----.-----          : ----------------------------- 
 DEPT.FT               : MEASURED DEPTH 
 DT__E.US/FT           : SONIC DELTA TRANSIT TIME (DTC - DELTA-T COMPRESSIONAL - WAVE SONIC) 
 DTS__E.US/FT          : SHEAR SONIC TRAVEL TIME (SINGLE DIPOLE SONIC - WAVE SONIC) 
 SPHI_LS__E.V/V        : SONIC POROSITY - LIMESTONE (SPHIDTC - SONIC POROSITY MTX=47.6 (DTC)) 
 TENS__E.LBS           : CABLE TENSION (TENSION) 
 #___________________________________________________________________________________________________ 
~A         DEPT          DT__E         DTS__E     SPHI_LS__E        TENS__E
# ...
         6918.0         76.785      128.19630        0.20640      5585.3003
         6918.5         73.277      124.53770        0.18160      5544.1816
         6919.0         72.106      122.60740        0.17330      5513.1484
         6919.5         71.614      122.18710        0.16980      5454.6118
         6920.0         71.389      123.48930        0.16820      5417.6108
         6920.5         74.035      126.67140        0.18690      5372.2959
         6921.0         80.464      130.93040        0.23240      5384.1406
         6921.5         86.132      136.38170        0.27250      5403.5210
         6922.0         88.195      142.30260        0.28710      5398.0952
         6922.5         88.700      146.66900        0.29070      5366.4077
         6923.0         89.653      149.92970        0.29740      5422.8335
         6923.5         89.783      152.76950        0.29830      5476.0000
         6924.0         87.923      151.10930        0.28520      5462.8584
         6924.5         85.215      146.63230        0.26600      5402.9688
         6925.0         81.980      140.70330        0.24310      5431.0464
         6925.5         77.517      134.75000        0.21160      5572.3384
         6926.0         73.468      130.63940        0.18290      5654.3389
         6926.5         72.138      128.74620        0.17350      5515.3032
         6927.0         73.129      129.49760        0.18050      5429.1846
         6927.5         77.473      133.72040        0.21130      5461.8096
         6928.0         84.939      140.32410        0.26410      5517.9087
         6928.5         89.838      145.76820        0.29870      5483.2544
         6929.0         91.394      150.33360        0.30970      5392.6016
         6929.5         91.039      154.15810        0.30720      5316.5010
         6930.0         88.964      151.83870        0.29250      5362.2114
         6930.5         86.124      147.86080        0.27240      5504.9697
         6931.0         83.769      145.16780        0.25580      5468.8711
         6931.5         81.851      142.43820        0.24220      5394.4292
         6932.0         80.720      140.43670        0.23420      5414.0352
         6932.5         81.324      141.52020        0.23850      5450.1787
         6933.0         84.200      144.66250        0.25880      5373.3008
         6933.5         87.476      146.58410        0.28200      5329.0112
         6934.0         89.470      147.93780        0.29610      5339.8076
         6934.5         90.872      154.11000        0.30600      5365.9683
         6935.0         90.828      156.25000        0.30570      5394.7905
         6935.5         89.630      153.13810        0.29720      5417.2725
         6936.0         87.913      147.97910        0.28510      5471.8379
         6936.5         84.614      146.51900        0.26180      5551.3896
         6937.0         81.805      144.23870        0.24190      5521.8457
         6937.5         80.629      141.07890        0.23360      5427.1094
         6938.0         80.615      139.73730        0.23350      5420.3076
         6938.5         80.906      140.37200        0.23550      5429.7378
         6939.0         81.572      141.65250        0.24030      5456.5527
         6939.5         83.486      142.76730        0.25380      5510.1133
         6940.0         84.694      143.89390        0.26230      5510.8359
         6940.5         84.126      144.53050        0.25830      5409.9961
         6941.0         83.514      145.30530        0.25400      5413.1216
         6941.5         84.457      146.55560        0.26070      5433.3818
         6942.0         86.076      146.62330        0.27210      5413.2119
         6942.5         86.140      146.81500        0.27260      5316.3438
         6943.0         84.223      146.56240        0.25900      5313.8164
         6943.5         81.395      144.03080        0.23900      5256.5444
         6944.0         79.413      140.87990        0.22500      5302.7505
         6944.5         79.210      138.45600        0.22360      5354.3149
         6945.0         80.171      137.56430        0.23030      5422.5747
         6945.5         81.565      139.58890        0.24020      5507.3042
         6946.0         83.445      142.78300        0.25350      5555.8115
         6946.5         85.408      147.09650        0.26740      5491.6699
         6947.0         86.553      151.62210        0.27550      5426.1509
         6947.5         86.818      154.19510        0.27740      5451.2617
         6948.0         87.178      153.95590        0.27990      5438.4243
         6948.5         87.126      152.28370        0.27950      5412.7261
         6949.0         85.159      146.72400        0.26560      5447.2461
         6949.5         79.655      138.82230        0.22670      5463.5913
         6950.0         73.368      134.04660        0.18220      5432.8740
         6950.5         71.779      131.03890        0.17100      5454.0815
         6951.0         72.682      130.15010        0.17740      5431.9829
         6951.5         76.010      133.80220        0.20090      5390.7285
         6952.0         81.132      137.71510        0.23710      5306.5181
         6952.5         84.259      140.88690        0.25930      5277.4810
         6953.0         84.629      142.86250        0.26190      5253.8584
         6953.5         84.042      143.73290        0.25770      5359.3574
         6954.0         83.495      143.98340        0.25390      5388.0669
         6954.5         84.707      145.57650        0.26240      5388.0098
         6955.0         87.465      148.87580        0.28190      5410.4370
         6955.5         89.540      154.78530        0.29660      5453.2466
         6956.0         90.805      156.68260        0.30550      5417.1714
         6956.5         91.112      156.41000        0.30770      5409.1611
         6957.0         89.424      154.55570        0.29580      5415.5132
         6957.5         85.434      149.96930        0.26760      5378.6812
         6958.0         82.502      146.64900        0.24680      5440.9404
         6958.5         80.957      142.10230        0.23590      5430.9111
         6959.0         79.458      137.84260        0.22530      5392.7710
         6959.5         78.839      136.41640        0.22090      5346.2827
         6960.0         79.738      135.64400        0.22730      5336.3110
         6960.5         81.835      136.18440        0.24210      5329.4399
         6961.0         83.951      137.86280        0.25710      5305.6938
         6961.5         84.999      141.69950        0.26450      5251.5010
         6962.0         87.190      146.49550        0.28000      5229.6733
         6962.5         90.440      149.09520        0.30300      5246.6055
         6963.0         91.675      151.12830        0.31170      5308.0967
         6963.5         91.738      154.09650        0.31220      5311.8315
         6964.0         91.314      153.66960        0.30920      5300.6406
         6964.5         89.489      150.83070        0.29620      5343.8804
         6965.0         87.061      148.78780        0.27910      5383.3633
         6965.5         85.871      148.73450        0.27070      5391.5073
         6966.0         86.081      149.47740        0.27210      5392.2070
         6966.5         87.383      149.02530        0.28130      5343.4849
         6967.0         88.646      148.91630        0.29030      5274.3335
         6967.5         88.969      150.01120        0.29260      5329.3726
         6968.0         88.610      149.63920        0.29000      5341.3643
         6968.5         87.836      148.23340        0.28460      5344.5679
         6969.0         86.540      147.33580        0.27540      5283.7529
         6969.5         85.968      146.79760        0.27130      5237.5698
         6970.0         86.982      147.57120        0.27850      5256.2393
         6970.5         88.468      148.91440        0.28900      5298.2603
