###############################################
##         ENVERUS                           ##
##         ESS - Open Hole                   ##
##         PERMIAN / MIDLAND                 ##
##         Nov 03 2023  V4.0                 ##
##         42-235-34485-90-00                ##
###############################################
## Copyright 2017-2023  ENVERUS.  All Rights Reserved. 
## Confidential - Property of ENVERUS, use governed by terms and 
## conditions found within the existing Information Services Subscription Agreement 
## (as may be amended, the “ISSA”) between Customer and ENVERUS. 
## 
~VERSION INFORMATION
# MNEM.UNIT                               DATA : DESCRIPTION OF MNEMONIC
#-----.-----     ----------------------------- : -----------------------------
VERS.                                     2.00 : CWLS LOG ASCII STANDARD - VERSION 2.00
WRAP.                                       NO : MULTIPLE LINES PER DEPTH STEP
VEND.                                  ENVERUS : VENDOR
TYPE.                          ESS - OPEN HOLE : ENVERUS ESSENTIAL CURVES – ACCESSIBLE THROUGH ENVERUS PRISM(TM)
DOC.                                  51094636 : ENVERUS HEADER RAW DOCUMENT ID
#___________________________________________________________________________________________________ 
~WELL INFORMATION 
# FMikr3+JyUztgncWDJlJj4UAVtjFs/xFdFTkOn/rCNZKdsWfgftU4ooQRZEXdd26HCoruynA4NvJdeWU6aB/BQ== 
# MNEM.UNIT                                              DATA : DESCRIPTION OF MNEMONIC 
#-----.-----                    ----------------------------- : ----------------------------- 
CNTY.                                                   IRION : COUNTY 
STATE.                                                  TEXAS : STATE 
CNTRY.                                                    USA : COUNTRY 
API.                                             42-235-34485 : API (10 Digit) 
API_14.                                    42-235-34485-90-00 : API (14 Digits) 
API_14_std.                                 42-235-34485-9000 : API (14 Digits Standard) 
UWI.                                           42235344859000 : UNIQUE WELL ID 
WELL.                                    UNIVERSITY 40-13 #1H : WELL NAME
STRT.FT                                                 187.0 : START DEPTH
STOP.FT                                                7212.0 : STOP DEPTH
STEP.FT                                                   0.5 : STEP BETWEEN DEPTHS
NULL.                                                 -999.25 : NULL VALUE
PREV_UWI.                                        42-235-34485 : API WELLHOLE NUMBER 
COMP.                                     EOG RESOURCES, INC. : COMPANY NAME 
COUN.                                                   IRION : COUNTY 
DAT2.                                                   02000 : LOGGING DATE 2 
DAT3.                                                   02000 : LOGGING DATE 3 
DAT4.                                                   02000 : LOGGING DATE 4 
DATE.                                              2/-1/-2010 : LOGGING DATE 
DFT.                                                    FRESH : DRILLING FLUID TYPE 
DMF.                                                       KB : DRILLING MEASURED 
ENGI.                                              R. ATKISON : ENGINEER 1 NAME 
LOC.                                        660 FNL & 660 FEL : FIELD LOCATION 
FL1.                                        660 FNL & 660 FEL : FIELD LOCATION LINE 1 
FL2.                                        SECT.13, BLOCK 40 : FIELD LOCATION LINE 2 
FLD.                                            LIN  WOLFCAMP : FIELD NAME 
HDAT.                                                   02000 : DATUM 
LMF.                                                       KB : LOG MEASURED FROM 
LUL.                                                   ODESSA : LOGGING UNIT LOCATION 
MCSS.                                                    MEAS : MUD CAKE SAMPLE SOURCE 
MFSS.                                                    MEAS : MUD FILTRATE SAMPLE SOURCE 
MSS.                                                  MUD PIT : SOURCE OF MUD SAMPLE 
OS1.                                             CSNG-DSN-SDL : OTHER SERVICES LINE 1 
OS2.                                                 DLL-MSFL : OTHER SERVICES LINE 2 
PDAT.                                                      GL : PERMANENT DATUM 
R1.             ANNULAR HOLE VOLUME CALCULATED FOR 5.5 INCH CASING. : REMARKS LINE 1 
R2.             LOGGING SCALES AND INTERVALS AS PER CUSTOMER REQUEST. : REMARKS LINE 2 
R3.             GR/CSNG/DSNT/SDLT/WSTT/DLLT/MGRD RAN IN COMBINATION AS SHOWN : REMARKS LINE 3 
RANG.                                                     N/A : RANGE 
RDT2.                                                   02000 : CASING DATE 2 
RDT3.                                                   02000 : CASING DATE 3 
RDT4.                                                   02000 : CASING DATE 4 
RDT5.                                                   02000 : CASING DATE 5 
SECT.                                                     N/A : SECTION 
SON.                                                  7176848 : SERVICE/TICKET ORDER NUMBER 
PROV.                                                   TEXAS : STATE 
TOWN.                                                     N/A : TOWNSHIP 
WITN.                                              GREG PALKO : WITNESS 1 NAME
#___________________________________________________________________________________________________ 
~PARAMETER INFORMATION 
# MNEM.UNIT                                              DATA : DESCRIPTION OF MNEMONIC 
#-----.-----                    ----------------------------- : -----------------------------
#___________________________________________________________________________________________________ 
~CURVE INFORMATION 
# MNEM.UNIT           : CURVE DESCRIPTION 
#-----.-----          : ----------------------------- 
 DEPT.FT               : MEASURED DEPTH 
 DT__E.US/FT           : SONIC DELTA TRANSIT TIME (DTC - DELTA-T COMPRESSIONAL - WAVE SONIC) 
 DTS__E.US/FT          : SHEAR SONIC TRAVEL TIME (SINGLE DIPOLE SONIC - WAVE SONIC) 
 SPHI_LS__E.V/V        : SONIC POROSITY - LIMESTONE (SPHIDTC - SONIC POROSITY MTX=47.6 (DTC)) 
 TENS__E.LBS           : CABLE TENSION (TENSION) 
 #___________________________________________________________________________________________________ 
~A         DEPT          DT__E         DTS__E     SPHI_LS__E        TENS__E
# ...
         5169.0         78.913      135.23010        0.22150      4806.8350
         5169.5         78.526      134.64520        0.21870      4707.7554
         5170.0         77.702      131.92480        0.21290      4620.6001
         5170.5         75.920      128.28610        0.20030      4720.0181
         5171.0         72.485      124.15750        0.17600      4755.3716
         5171.5         68.664      119.50730        0.14900      4645.1470
         5172.0         65.320      115.24910        0.12530      4626.2627
         5172.5         62.901      112.39210        0.10820      4788.5146
         5173.0         62.745      112.37070        0.10710      4833.8076
         5173.5         65.928      114.30860        0.12960      4689.2666
         5174.0         70.693      118.61060        0.16330      4670.0659
         5174.5         74.715      122.23910        0.19180      4786.5747
         5175.0         76.911      125.23700        0.20730      4678.4814
         5175.5         77.566      127.92080        0.21190      4626.0259
         5176.0         77.839      130.57520        0.21390      4762.5015
         5176.5         78.198      131.26480        0.21640      4752.2803
         5177.0         78.656      132.05320        0.21960      4653.8105
         5177.5         78.953      132.68710        0.22170      4749.2012
         5178.0         77.877      130.99690        0.21410      4848.5508
         5178.5         74.630      129.02830        0.19120      4709.7295
         5179.0         71.239      126.97560        0.16720      4657.6914
         5179.5         68.711      123.36930        0.14930      4782.8521
         5180.0         67.216      120.69170        0.13870      4809.7002
         5180.5         67.147      119.88070        0.13820      4786.2021
         5181.0         68.224      120.06690        0.14590      4725.7939
         5181.5         70.062      121.03040        0.15890      4662.1133
         5182.0         73.242      123.31160        0.18130      4708.2852
         5182.5         74.248      126.61070        0.18850      4813.7388
         5183.0         73.361      129.64680        0.18220      4762.0840
         5183.5         73.853      131.29650        0.18570      4647.0200
         5184.0         76.044      131.78440        0.20120      4668.2949
         5184.5         77.035      132.19760        0.20820      4720.8979
         5185.0         77.552      133.20760        0.21180      4739.5894
         5185.5         79.000      134.54220        0.22210      4725.6021
         5186.0         80.383      135.53070        0.23180      4779.9746
         5186.5         80.601      136.77040        0.23340      4818.1157
         5187.0         80.243      138.09850        0.23090      4797.2915
         5187.5         80.009      138.56110        0.22920      4717.5469
         5188.0         79.942      138.19980        0.22870      4750.7471
         5188.5         80.083      137.69850        0.22970      4740.7627
         5189.0         80.639      137.65940        0.23370      4649.3994
         5189.5         80.808      137.74760        0.23480      4739.5786
         5190.0         80.537      138.09800        0.23290      4779.6816
         5190.5         80.961      138.68840        0.23590      4768.4800
         5191.0         81.578      138.66560        0.24030      4733.9272
         5191.5         81.542      138.45260        0.24000      4758.5083
         5192.0         80.825      137.96280        0.23500      4778.0127
         5192.5         78.771      135.77550        0.22040      4712.6855
         5193.0         74.963      132.40030        0.19350      4722.4766
         5193.5         72.554      129.45490        0.17650      4733.7231
         5194.0         72.527      128.06500        0.17630      4640.2734
         5194.5         72.969      128.03160        0.17940      4648.2832
         5195.0         73.375      129.85110        0.18230      4760.0308
         5195.5         75.608      133.53550        0.19810      4766.9453
         5196.0         79.149      135.43000        0.22310      4712.9224
         5196.5         80.880      135.98360        0.23540      4753.4771
         5197.0         81.564      136.94810        0.24020      4780.6069
         5197.5         83.032      138.84470        0.25060      4654.6797
         5198.0         84.939      140.88050        0.26410      4673.9351
         5198.5         86.597      142.78680        0.27580      4719.7578
         5199.0         88.157      144.30280        0.28680      4727.0122
         5199.5         89.284      145.33580        0.29480      4702.8818
         5200.0         89.825      145.86970        0.29860      4707.3721
         5200.5         89.616      145.13860        0.29710      4687.4722
         5201.0         87.271      143.04800        0.28060      4688.0249
         5201.5         83.423      140.11050        0.25330      4685.4868
         5202.0         80.249      136.47200        0.23090      4715.0537
         5202.5         74.648      132.84300        0.19130      4752.9458
         5203.0         61.007      126.63940        0.09480      4812.6328
         5203.5         49.473      113.92430        0.01320      4721.1802
         5204.0         48.307      105.37400        0.00500      4702.7012
         5204.5         47.353      101.70850       -0.00170      4821.3193
         5205.0         45.726       98.38840       -0.01330      4818.0361
         5205.5         45.588       96.04220       -0.01420      4674.7935
         5206.0         48.752       96.87720        0.00810      4732.3364
         5206.5         55.137      101.70900        0.05330      4872.7153
         5207.0         62.915      107.65210        0.10830      4821.1387
         5207.5         69.635      111.90020        0.15580      4682.0576
         5208.0         75.663      118.07350        0.19850      4792.1807
         5208.5         80.553      127.73590        0.23300      4879.3931
         5209.0         81.559      135.30030        0.24020      4775.1475
         5209.5         82.208      137.98160        0.24470      4683.7388
         5210.0         82.962      138.68440        0.25010      4726.9780
         5210.5         83.396      138.60220        0.25320      4788.9551
         5211.0         82.861      137.98040        0.24940      4674.3198
         5211.5         81.128      136.89510        0.23710      4702.4189
         5212.0         79.687      136.38450        0.22690      4769.0439
         5212.5         79.580      136.56520        0.22620      4758.1128
         5213.0         80.087      136.67990        0.22970      4703.2090
         5213.5         80.655      136.43800        0.23380      4666.6147
         5214.0         80.701      135.38690        0.23410      4790.0381
         5214.5         79.948      133.64570        0.22880      4786.6650
         5215.0         76.381      132.02230        0.20350      4731.7490
         5215.5         74.094      130.50080        0.18740      4765.5474
         5216.0         75.341      129.53750        0.19620      4836.6729
         5216.5         76.713      129.85060        0.20590      4792.3164
         5217.0         77.126      131.05930        0.20880      4669.3667
         5217.5         78.595      132.65420        0.21920      4744.1704
         5218.0         80.390      134.63650        0.23190      4822.3350
         5218.5         81.435      137.05850        0.23930      4763.7422
         5219.0         81.940      139.64970        0.24290      4750.6567
         5219.5         82.360      141.19050        0.24580      4694.4443
         5220.0         83.265      142.00750        0.25220      4731.5015
         5220.5         84.352      141.40970        0.25990      4763.4146
         5221.0         82.573      137.94630        0.24730      4796.2754
         5221.5         76.878      132.80780        0.20710      4781.0356
