###############################################
##         ENVERUS                           ##
##         ESS - Open Hole                   ##
##         PERMIAN / MIDLAND                 ##
##         Nov 03 2023  V4.0                 ##
##         42-235-34485-90-00                ##
###############################################
## Copyright 2017-2023  ENVERUS.  All Rights Reserved. 
## Confidential - Property of ENVERUS, use governed by terms and 
## conditions found within the existing Information Services Subscription Agreement 
## (as may be amended, the “ISSA”) between Customer and ENVERUS. 
## 
~VERSION INFORMATION
# MNEM.UNIT                               DATA : DESCRIPTION OF MNEMONIC
#-----.-----     ----------------------------- : -----------------------------
VERS.                                     2.00 : CWLS LOG ASCII STANDARD - VERSION 2.00
WRAP.                                       NO : MULTIPLE LINES PER DEPTH STEP
VEND.                                  ENVERUS : VENDOR
TYPE.                          ESS - OPEN HOLE : ENVERUS ESSENTIAL CURVES – ACCESSIBLE THROUGH ENVERUS PRISM(TM)
DOC.                                  51094636 : ENVERUS HEADER RAW DOCUMENT ID
#___________________________________________________________________________________________________ 
~WELL INFORMATION 
# FMikr3+JyUztgncWDJlJj4UAVtjFs/xFdFTkOn/rCNZKdsWfgftU4ooQRZEXdd26HCoruynA4NvJdeWU6aB/BQ== 
# MNEM.UNIT                                              DATA : DESCRIPTION OF MNEMONIC 
#-----.-----                    ----------------------------- : ----------------------------- 
CNTY.                                                   IRION : COUNTY 
STATE.                                                  TEXAS : STATE 
CNTRY.                                                    USA : COUNTRY 
API.                                             42-235-34485 : API (10 Digit) 
API_14.                                    42-235-34485-90-00 : API (14 Digits) 
API_14_std.                                 42-235-34485-9000 : API (14 Digits Standard) 
UWI.                                           42235344859000 : UNIQUE WELL ID 
WELL.                                    UNIVERSITY 40-13 #1H : WELL NAME
STRT.FT                                                 187.0 : START DEPTH
STOP.FT                                                7212.0 : STOP DEPTH
STEP.FT                                                   0.5 : STEP BETWEEN DEPTHS
NULL.                                                 -999.25 : NULL VALUE
PREV_UWI.                                        42-235-34485 : API WELLHOLE NUMBER 
COMP.                                     EOG RESOURCES, INC. : COMPANY NAME 
COUN.                                                   IRION : COUNTY 
DAT2.                                                   02000 : LOGGING DATE 2 
DAT3.                                                   02000 : LOGGING DATE 3 
DAT4.                                                   02000 : LOGGING DATE 4 
DATE.                                              2/-1/-2010 : LOGGING DATE 
DFT.                                                    FRESH : DRILLING FLUID TYPE 
DMF.                                                       KB : DRILLING MEASURED 
ENGI.                                              R. ATKISON : ENGINEER 1 NAME 
LOC.                                        660 FNL & 660 FEL : FIELD LOCATION 
FL1.                                        660 FNL & 660 FEL : FIELD LOCATION LINE 1 
FL2.                                        SECT.13, BLOCK 40 : FIELD LOCATION LINE 2 
FLD.                                            LIN  WOLFCAMP : FIELD NAME 
HDAT.                                                   02000 : DATUM 
LMF.                                                       KB : LOG MEASURED FROM 
LUL.                                                   ODESSA : LOGGING UNIT LOCATION 
MCSS.                                                    MEAS : MUD CAKE SAMPLE SOURCE 
MFSS.                                                    MEAS : MUD FILTRATE SAMPLE SOURCE 
MSS.                                                  MUD PIT : SOURCE OF MUD SAMPLE 
OS1.                                             CSNG-DSN-SDL : OTHER SERVICES LINE 1 
OS2.                                                 DLL-MSFL : OTHER SERVICES LINE 2 
PDAT.                                                      GL : PERMANENT DATUM 
R1.             ANNULAR HOLE VOLUME CALCULATED FOR 5.5 INCH CASING. : REMARKS LINE 1 
R2.             LOGGING SCALES AND INTERVALS AS PER CUSTOMER REQUEST. : REMARKS LINE 2 
R3.             GR/CSNG/DSNT/SDLT/WSTT/DLLT/MGRD RAN IN COMBINATION AS SHOWN : REMARKS LINE 3 
RANG.                                                     N/A : RANGE 
RDT2.                                                   02000 : CASING DATE 2 
RDT3.                                                   02000 : CASING DATE 3 
RDT4.                                                   02000 : CASING DATE 4 
RDT5.                                                   02000 : CASING DATE 5 
SECT.                                                     N/A : SECTION 
SON.                                                  7176848 : SERVICE/TICKET ORDER NUMBER 
PROV.                                                   TEXAS : STATE 
TOWN.                                                     N/A : TOWNSHIP 
WITN.                                              GREG PALKO : WITNESS 1 NAME
#___________________________________________________________________________________________________ 
~PARAMETER INFORMATION 
# MNEM.UNIT                                              DATA : DESCRIPTION OF MNEMONIC 
#-----.-----                    ----------------------------- : -----------------------------
#___________________________________________________________________________________________________ 
~CURVE INFORMATION 
# MNEM.UNIT           : CURVE DESCRIPTION 
#-----.-----          : ----------------------------- 
 DEPT.FT               : MEASURED DEPTH 
 DT__E.US/FT           : SONIC DELTA TRANSIT TIME (DTC - DELTA-T COMPRESSIONAL - WAVE SONIC) 
 DTS__E.US/FT          : SHEAR SONIC TRAVEL TIME (SINGLE DIPOLE SONIC - WAVE SONIC) 
 SPHI_LS__E.V/V        : SONIC POROSITY - LIMESTONE (SPHIDTC - SONIC POROSITY MTX=47.6 (DTC)) 
 TENS__E.LBS           : CABLE TENSION (TENSION) 
 #___________________________________________________________________________________________________ 
~A         DEPT          DT__E         DTS__E     SPHI_LS__E        TENS__E
# ...
         4533.0         86.315      152.12050        0.27380      4541.7251
         4533.5         86.446      149.89820        0.27470      4521.9263
         4534.0         85.719      148.35130        0.26960      4512.0337
         4534.5         85.110      148.15330        0.26530      4523.6978
         4535.0         85.066      149.57150        0.26500      4574.0562
         4535.5         85.767      150.99160        0.26990      4449.1211
         4536.0         87.099      151.61060        0.27930      4354.7910
         4536.5         88.861      152.85830        0.29180      4432.1318
         4537.0         90.456      154.82060        0.30310      4527.6011
         4537.5         91.326      156.09550        0.30920      4551.6631
         4538.0         92.298      155.93240        0.31610      4455.2681
         4538.5         93.263      155.15770        0.32290      4489.6636
         4539.0         93.493      155.31330        0.32460      4517.3701
         4539.5         93.584      156.76610        0.32520      4464.0449
         4540.0         93.896      158.52500        0.32740      4497.4248
         4540.5         94.209      159.05450        0.32960      4685.8032
         4541.0         94.086      158.99200        0.32880      4596.3687
         4541.5         93.328      159.46070        0.32340      4534.0312
         4542.0         93.029      159.47030        0.32130      4526.0225
         4542.5         93.541      158.75020        0.32490      4552.2158
         4543.0         93.831      158.25760        0.32700      4509.0107
         4543.5         93.643      158.26840        0.32560      4449.7183
         4544.0         93.205      158.23800        0.32250      4525.7280
         4544.5         92.501      158.33310        0.31750      4659.9819
         4545.0         91.092      158.84890        0.30760      4548.4033
         4545.5         88.975      157.16140        0.29260      4552.5542
         4546.0         87.030      155.96680        0.27890      4584.9863
         4546.5         86.091      155.28390        0.27220      4464.4517
         4547.0         86.942      154.56690        0.27820      4391.9604
         4547.5         88.655      154.65500        0.29030      4558.0137
         4548.0         89.846      155.86260        0.29880      4536.7612
         4548.5         90.512      157.48390        0.30350      4483.0308
         4549.0         90.627      158.71550        0.30430      4534.8994
         4549.5         90.424      159.07150        0.30290      4500.0645
         4550.0         90.199      159.35940        0.30130      4451.9634
         4550.5         90.226      159.49060        0.30150      4494.9658
         4551.0         90.358      159.38510        0.30240      4557.3716
         4551.5         90.396      159.17950        0.30270      4566.4854
         4552.0         90.370      159.54590        0.30250      4529.3491
         4552.5         89.798      158.24180        0.29840      4488.1743
         4553.0         87.830      156.47850        0.28450      4536.2202
         4553.5         84.142      152.87430        0.25840      4477.9766
         4554.0         81.127      148.02080        0.23710      4489.2461
         4554.5         79.907      145.58650        0.22850      4533.5918
         4555.0         79.025      144.25670        0.22220      4482.9854
         4555.5         78.904      143.78240        0.22140      4433.2378
         4556.0         80.004      144.64060        0.22920      4499.5000
         4556.5         81.173      146.46490        0.23740      4396.2700
         4557.0         82.937      147.63150        0.24990      4365.2026
         4557.5         86.686      149.39590        0.27640      4502.0728
         4558.0         89.906      154.19830        0.29920      4553.1294
         4558.5         90.683      156.19040        0.30470      4485.8057
         4559.0         90.186      155.45740        0.30120      4455.4380
         4559.5         89.669      155.18610        0.29750      4519.0840
         4560.0         89.448      155.89300        0.29600      4433.6211
         4560.5         89.138      155.78930        0.29380      4461.3491
         4561.0         88.255      156.19970        0.28750      4517.8315
         4561.5         87.124      155.25760        0.27950      4506.5396
         4562.0         86.029      151.21630        0.27180      4412.8530
         4562.5         84.098      147.12250        0.25810      4491.7173
         4563.0         81.898      145.71100        0.24260      4570.7280
         4563.5         80.803      144.23510        0.23480      4474.2090
         4564.0         80.586      142.80830        0.23330      4406.2310
         4564.5         81.043      142.26100        0.23650      4537.6973
         4565.0         82.762      144.02090        0.24870      4545.9434
         4565.5         85.418      148.16640        0.26750      4430.1123
         4566.0         87.478      152.43400        0.28200      4463.8984
         4566.5         87.380      153.99490        0.28130      4525.0405
         4567.0         86.021      153.45670        0.27170      4421.7080
         4567.5         86.005      153.37030        0.27160      4374.3286
         4568.0         87.287      154.34700        0.28070      4474.2319
         4568.5         88.381      155.85460        0.28840      4519.8398
         4569.0         88.993      156.60170        0.29270      4493.4424
         4569.5         89.870      157.73590        0.29890      4513.2861
         4570.0         90.514      158.94060        0.30350      4464.9927
         4570.5         90.724      158.84500        0.30500      4322.0537
         4571.0         90.471      157.91040        0.30320      4432.1094
         4571.5         89.705      156.69480        0.29780      4507.6909
         4572.0         88.736      155.27780        0.29090      4459.9844
         4572.5         87.747      154.48180        0.28390      4340.1367
         4573.0         86.280      152.95700        0.27360      4382.3384
         4573.5         84.560      150.52930        0.26140      4407.5508
         4574.0         83.581      148.74730        0.25450      4340.4751
         4574.5         83.215      147.68190        0.25190      4360.6450
         4575.0         83.203      147.35600        0.25180      4449.7974
         4575.5         83.856      148.12550        0.25640      4395.4800
         4576.0         84.545      149.59200        0.26130      4275.1147
         4576.5         84.813      151.39050        0.26320      4347.8638
         4577.0         85.225      153.04020        0.26610      4445.0596
         4577.5         85.381      153.53450        0.26720      4382.8345
         4578.0         85.167      153.12900        0.26570      4330.8413
         4578.5         84.629      152.12960        0.26190      4402.6548
         4579.0         83.451      151.17990        0.25350      4484.0234
         4579.5         81.602      149.21470        0.24050      4474.1758
         4580.0         79.661      145.79530        0.22670      4381.8418
         4580.5         78.102      142.66530        0.21570      4464.2148
         4581.0         77.125      140.41260        0.20880      4512.4170
         4581.5         76.860      138.83700        0.20690      4503.2236
         4582.0         77.312      138.05950        0.21010      4495.2246
         4582.5         78.044      138.18290        0.21530      4631.7905
         4583.0         78.667      139.19750        0.21970      4591.5635
         4583.5         79.456      140.30530        0.22530      4519.0278
         4584.0         80.307      141.65340        0.23130      4608.9473
         4584.5         81.016      143.60990        0.23630      4641.3452
         4585.0         81.521      144.87650        0.23990      4515.4741
         4585.5         81.600      143.82500        0.24050      4487.2612
