###############################################
##         ENVERUS                           ##
##         ESS - Open Hole                   ##
##         PERMIAN / MIDLAND                 ##
##         Nov 04 2023  V4.0                 ##
##         42-383-38290-90-00                ##
###############################################
## Copyright 2017-2023  ENVERUS.  All Rights Reserved. 
## Confidential - Property of ENVERUS, use governed by terms and 
## conditions found within the existing Information Services Subscription Agreement 
## (as may be amended, the “ISSA”) between Customer and ENVERUS. 
## 
~VERSION INFORMATION
# MNEM.UNIT                               DATA : DESCRIPTION OF MNEMONIC
#-----.-----     ----------------------------- : -----------------------------
VERS.                                     2.00 : CWLS LOG ASCII STANDARD - VERSION 2.00
WRAP.                                       NO : MULTIPLE LINES PER DEPTH STEP
VEND.                                  ENVERUS : VENDOR
TYPE.                          ESS - OPEN HOLE : ENVERUS ESSENTIAL CURVES – ACCESSIBLE THROUGH ENVERUS PRISM(TM)
DOC.                                  51094660 : ENVERUS HEADER RAW DOCUMENT ID
#___________________________________________________________________________________________________ 
~WELL INFORMATION 
# m1FPRISIcKBcMzk40yd34Gtphn5JoOH7jww50mYGKLfe2DZfACMCifCPsuzsX4y0yEiREccSdbTgxIOvDda2cA== 
# MNEM.UNIT                                              DATA : DESCRIPTION OF MNEMONIC 
#-----.-----                    ----------------------------- : ----------------------------- 
CNTY.                                                  REAGAN : COUNTY 
STATE.                                                  TEXAS : STATE 
CNTRY.                                                    USA : COUNTRY 
API.                                             42-383-38290 : API (10 Digit) 
API_14.                                    42-383-38290-90-00 : API (14 Digits) 
API_14_std.                                 42-383-38290-9000 : API (14 Digits Standard) 
UWI.                                           42383382909000 : UNIQUE WELL ID 
WELL.                                    UNIVERSITY 43-14 #6H : WELL NAME
STRT.FT                                                 900.0 : START DEPTH
STOP.FT                                                7359.0 : STOP DEPTH
STEP.FT                                                   0.5 : STEP BETWEEN DEPTHS
NULL.                                                 -999.25 : NULL VALUE
COMP.                       DEVON ENERGY PRODUCTION CO., L.P. : COMPANY 
FLD.                                           LIN (WOLFCAMP) : FIELD 
LOC.                                       201 FSL & 1115 FWL : LOCATION 
SRVC.                                             BAKER ATLAS : SERVICE COMPANY 
DATE.                                             25-AUG-2013 : LOG DATE 
PREV_APII.                                     42383382900000 : API NUMBER 
PREV_UWI.                                      42383382900000 : UNIQUE WELL ID
#___________________________________________________________________________________________________ 
~PARAMETER INFORMATION 
# MNEM.UNIT                                              DATA : DESCRIPTION OF MNEMONIC 
#-----.-----                    ----------------------------- : ----------------------------- 
HIDE.                                  COMPENSATED Z-DENSILOG : HEADER IDENTIFER 
HID1.                                 COMPENSATED NEUTRON LOG : HEADER IDENTIFER 
HID2.                                      DIGITAL SPECTRALOG : HEADER IDENTIFER 
HID3.                                           GAMMA RAY LOG : HEADER IDENTIFER 
CLAB.                                                  COUNTY : COUNTY LABEL (COMMENTS) 
SLAB.                                                   STATE : STATE LABEL (COMMENTS) 
FILE.                                                 MD10587 : FILE NUMBER 
CMT2.                                             FINAL PRINT : COMMENT 2 
FL1.                                          SEC.14, BLK. 43 : FIELD LOCATION 1 
FL3.                                  UNIVERSITY LAND SURVEY. : FIELD LOCATION 3 
OS2.                                                  HDIL/GR : OTHER SERVICES LINE 2 
OS3.                                                  XMAC/GR : OTHER SERVICES LINE 3 
OS4.                                                      BHP : OTHER SERVICES LINE 4 
PDAT.                                                    G.L. : PERMANENT DATUM 
EPD.FT                                                   2678 : ELEVATION OF PERM. DATUM 
LMF.                                                     K.B. : LOG MEASURED FROM 
APD.FT                                                     25 : ABOVE PERMANENT DATUM 
DMF.                                            KELLY BUSHING : DRILLING MEASURED FROM 
EKB.FT                                                   2703 : ELEVATION OF KELLY BUSHING 
EDF.FT                                                   2702 : ELEVATION OF DERRICK FLOOR 
EGL.FT                                                   2678 : ELEVATION OF GROUND LEVEL 
RUN.                                                        1 : RUN NUMBER 
TRIP.                                                       1 : TRIP NUMBER 
SON.                                                   636509 : SERVICE ORDER NUMBER 
TDD.FT                                                   7363 : TOTAL DEPTH - DRILLER 
TDL.FT                                                   7363 : TOTAL DEPTH - LOGGER 
BLI.FT                                                   7273 : BOTTOM LOG INTERVAL 
TLI.FT                                                    924 : TOP LOG INTERVAL 
CSIZ.IN                                                 9.625 : CASING SIZE 
CBDR.FT                                                   927 : CASING BOTTOM - DRILLER 
CBLO.FT                                                   924 : CASING BOTTOM - LOGGER 
BS.IN                                                    8.75 : BIT SIZE 
DFT.                                            OIL BASED MUD : DRILLING FLUID TYPE 
DFD.LB/G                                                    9 : DRILLING FLUID DENSITY 
DFV.S                                                      20 : DRILLING FLUID VISCOSITY 
MSS.                                                      OBM : MUD SAMPLE SOURCE 
MFSS.                                                      -- : MUD FILTRATE SAMPLE SOURCE 
MCSS.                                                      -- : MUD CAKE SAMPLE SOURCE 
TSC.                                                  7 HOURS : TIME SINCE CIRCULATION 
MRT.DEGF                                                  152 : MAXIMUM RECORDED TEMPERATURE 
LUN.                                                  HL-6713 : LOGGING UNIT NUMBER 
LUL.                                              MIDLAND, TX : LOGGING UNIT LOCATION 
ENGI.                                               O. ROBLES : ENGINEERS NAME 
WITN.                                                W. LUTKE : WITNESS NAME 
TSTR.                                           ZDL/CN/DSL/GR : TITLE SERVICE MNEMONIC 
TSTG.                                                      NA : TITLE SERVICE MNEMONIC 
STUS.                                                   FINAL : STATUS 
LCNM.                                             BAKER ATLAS : LOGGING COMPANY NAME 
LCC.                                                      150 : LOGGING COMPANY CODE 
OPMD.                                                 OH.WIRE : OPERATION MODE 
PANA.                                               O. ROBLES : PROCESSING ANALYST 
PCON.                                             BAKER ATLAS : PROCESSING CONTRACTOR
#___________________________________________________________________________________________________ 
~CURVE INFORMATION 
# MNEM.UNIT           : CURVE DESCRIPTION 
#-----.-----          : ----------------------------- 
 DEPT.FT               : MEASURED DEPTH 
 CALI.IN               : CALIPER (CALX - CALIPER FROM X-AXIS OF XY CALIPER(S)) 
 GR.API                : GAMMA RAY (GAMMA RAY) 
 SGR.API               : SPECTRAL GAMMA RAY (KTH - STRIPPED POTASSIUM-THORIUM) 
 SGR_TH_PPM.PPM        : SPECTRAL GAMMA RAY - THORIUM IN PPM (TH - THORIUM CONCENTRATION) 
 SGR_U_PPM.PPM         : SPECTRAL GAMMA RAY - URANIUM IN PPM (U - URANIUM CONTENT) 
 SP.MV                 : SPONTANEOUS POTENTIAL (SPDH - SPONTANEOUS POTENTIAL PROCESSED IN COMMON REMOTE) 
 DT.US/FT              : SONIC DELTA TRANSIT TIME (DT24 - SLOWNESS OVER 24-INCH INTERVAL) 
 PE.B/E                : PHOTOELECTRIC EFFECT/FACTOR (PHOTO ELECTRIC CROSS-SECTION) 
 RESS_10M2.OHMM        : RESISTIVITY SHALLOW - 10 IN 2 FT VERTICAL (M2R1 - VERTICAL 2-FOOT RESOLUTION MATCHED RESISTIVITY 10-INCH DOI) 
 RESS_20M2.OHMM        : RESISTIVITY SHALLOW - 20 IN 2 FT VERTICAL (M2R2 - VERTICAL 2-FOOT RESOLUTION MATCHED RESISTIVITY 20-INCH DOI) 
 RESM_30M2.OHMM        : RESISTIVITY MEDIUM - 30 IN 2 FT VERTICAL (M2R3 - VERTICAL 2-FOOT RESOLUTION MATCHED RESISTIVITY 30-INCH DOI) 
 RESD_60M2.OHMM        : RESISTIVITY DEEP - 60 IN 2 FT VERTICAL (M2R6 - VERTICAL 2-FOOT RESOLUTION MATCHED RESISTIVITY 60-INCH DOI) 
 RESD_90M2.OHMM        : RESISTIVITY DEEP - 90 IN 2 FT VERTICAL (M2R9 - VERTICAL 2-FOOT RESOLUTION MATCHED RESISTIVITY 90-INCH DOI) 
 RESD_120M2.OHMM       : RESISTIVITY DEEP - 120 IN 2 FT VERTICAL (M2RX - VERTICAL 2-FOOT RESOLUTION MATCHED RESISTIVITY 120-INCH DOI) 
 DPHI.V/V              : DENSITY POROSITY (PORZC - CORRECTED POROSITY) 
 NPHI.V/V              : NEUTRON POROSITY (CNC - BOREHOLE SIZE CORRECTED COMPENSATED NEUTRON POROSITY) 
 SPHI.V/V              : SONIC POROSITY (PORA - ACOUSTIC POROSITY) 
 DRHO.G/CC             : DENSITY CORRECTION (ZCOR - DENSITY CORRECTION) 
 RHOB.G/CC             : BULK DENSITY (ZDNC - BOREHOLE SIZE/MUD WEIGHT CORRECTED DENSITY) 
 TEMP.DEGF             : TEMPERATURE (WTBH - TEMPERATURE OF BOREHOLE) 
 #___________________________________________________________________________________________________ 
~A         DEPT           CALI             GR            SGR     SGR_TH_PPM      SGR_U_PPM             SP             DT             PE      RESS_10M2      RESS_20M2      RESM_30M2      RESD_60M2      RESD_90M2     RESD_120M2           DPHI           NPHI           SPHI           DRHO           RHOB           TEMP
# ...
         6854.0          8.962        114.095         75.066          9.828          5.437        -41.747         85.903         3.0380          9.594         10.036         11.001         13.123         14.946         17.340        0.13130        0.27779        0.26898        0.00300         2.4850        152.874
         6854.5          8.941        113.754         74.720          9.903          5.438        -41.644         84.401         3.0650         10.293         10.693         11.674         13.919         15.798         18.288        0.13891        0.26490        0.25844        0.00100         2.4720        152.813
         6855.0          8.939        113.408         76.036         10.121          5.224        -42.425         83.353         2.9770         10.645         11.001         11.957         14.236         16.088         18.576        0.13773        0.25231        0.25107        0.00000         2.4740        152.452
         6855.5          8.950        111.913         77.565         10.462          4.885        -44.106         83.723         2.8120         10.349         10.617         11.473         13.631         15.318         17.636        0.13096        0.24643        0.25368        0.00000         2.4860        152.689
         6856.0          8.960        110.804         78.651         10.723          4.646        -45.501         85.138         2.6340         10.170         10.320         11.070         13.118         14.638         16.803        0.12362        0.24343        0.26361        0.00200         2.4990        153.217
         6856.5          8.958        113.697         79.779         10.574          4.793        -45.398         86.247         2.5130         10.936         10.936         11.619         13.698         15.183         17.376        0.12188        0.23973        0.27140        0.00500         2.5020        153.244
         6857.0          8.945        119.548         80.772         10.126          5.211        -44.450         85.827         2.5410         13.282         13.059         13.718         16.060         17.679         20.172        0.12547        0.23984        0.26845        0.00700         2.4950        152.864
         6857.5          8.935        120.678         79.051          9.770          5.508        -43.548         83.796         2.7840         17.506         16.837         17.561         20.385         22.277         25.345        0.12429        0.23770        0.25418        0.00900         2.4970        152.354
         6858.0          8.933        112.385         72.067          9.272          5.524        -42.750         81.137         3.1440         20.972         19.782         20.450         23.617         25.645         29.094        0.11314        0.22397        0.23551        0.01100         2.5170        151.846
         6858.5          8.933        101.048         65.227          8.560          5.166        -42.589         79.143         3.3730         20.198         19.137         19.601         22.408         24.235         27.417        0.09772        0.20989        0.22151        0.01300         2.5430        151.520
         6859.0          8.933         95.084         62.850          8.196          4.823        -43.043         78.759         3.4060         17.218         16.596         16.900         19.074         20.584         23.225        0.08756        0.20269        0.21881        0.01300         2.5600        151.640
         6859.5          8.939         95.677         63.836          8.205          4.752        -43.437         79.784         3.3350         14.460         14.140         14.344         16.025         17.272         19.443        0.08773        0.19948        0.22601        0.01000         2.5600        151.974
         6860.0          8.946         98.827         66.569          8.340          4.721        -44.015         81.235         3.1960         12.668         12.475         12.615         13.986         15.067         16.929        0.09494        0.20235        0.23620        0.00500         2.5480        151.831
         6860.5          8.951        100.675         68.335          8.639          4.732        -44.834         82.188         3.0690         11.996         11.823         11.925         13.150         14.167         15.897        0.09971        0.21594        0.24290        0.00300         2.5400        151.367
         6861.0          8.949        102.373         69.469          9.064          4.807        -45.400         82.418         2.9910         11.977         11.796         11.880         13.062         14.081         15.787        0.09929        0.23182        0.24451        0.00400         2.5400        151.349
         6861.5          8.944        105.260         70.783          9.379          4.932        -45.909         82.239         2.9060         12.189         12.038         12.132         13.336         14.391         16.131        0.10017        0.23194        0.24325        0.00400         2.5390        151.837
         6862.0          8.943        107.025         70.805          9.386          5.094        -46.523         82.042         2.8880         12.593         12.540         12.682         13.966         15.089         16.919        0.10337        0.22166        0.24187        0.00300         2.5330        152.244
         6862.5          8.946        105.452         68.045          9.090          5.325        -46.777         82.078         3.0450         12.511         12.605         12.809         14.155         15.314         17.188        0.10456        0.21439        0.24212        0.00300         2.5310        152.397
         6863.0          8.951        103.377         64.258          8.562          5.658        -46.437         82.378         3.2810         11.367         11.551         11.791         13.087         14.176         15.932        0.10268        0.21292        0.24423        0.00500         2.5340        152.427
         6863.5          8.959        103.723         61.114          7.796          6.098        -45.554         82.735         3.3940         10.282         10.469         10.721         11.960         12.971         14.607        0.10359        0.21055        0.24674        0.00500         2.5330        152.533
         6864.0          8.970        106.888         59.224          6.979          6.571        -44.215         82.681         3.3260         10.466         10.586         10.837         12.152         13.182         14.883        0.11188        0.20639        0.24635        0.00200         2.5190        152.602
         6864.5          8.984        108.917         57.514          6.421          6.911        -43.194         81.772         3.1740         12.620         12.571         12.809         14.430         15.640         17.713        0.12130        0.20568        0.23997       -0.00100         2.5030        152.683
         6865.0          8.988        103.488         52.407          5.997          7.006        -42.885         79.970         3.0580         17.874         17.373         17.601         19.937         21.562         24.513        0.12142        0.20993        0.22732       -0.00300         2.5020        152.904
         6865.5          8.977         92.266         46.073          5.464          6.656        -43.068         77.870         3.0260         25.869         24.132         24.261         27.906         30.083         34.351        0.11131        0.20953        0.21257       -0.00200         2.5200        152.951
         6866.0          8.961         84.531         43.192          5.067          6.220        -43.652         76.452         3.0460         31.606         28.669         28.644         33.360         35.877         41.160        0.10040        0.19820        0.20262       -0.00100         2.5380        152.491
         6866.5          8.950         84.253         43.970          4.970          6.065        -44.711         76.507         3.1110         30.930         28.473         28.476         32.977         35.494         40.914        0.09614        0.18682        0.20300       -0.00100         2.5460        152.012
