###############################################
##         ENVERUS                           ##
##         ESS - Open Hole                   ##
##         PERMIAN / MIDLAND                 ##
##         Nov 03 2023  V4.0                 ##
##         42-235-34485-90-00                ##
###############################################
## Copyright 2017-2023  ENVERUS.  All Rights Reserved. 
## Confidential - Property of ENVERUS, use governed by terms and 
## conditions found within the existing Information Services Subscription Agreement 
## (as may be amended, the “ISSA”) between Customer and ENVERUS. 
## 
~VERSION INFORMATION
# MNEM.UNIT                               DATA : DESCRIPTION OF MNEMONIC
#-----.-----     ----------------------------- : -----------------------------
VERS.                                     2.00 : CWLS LOG ASCII STANDARD - VERSION 2.00
WRAP.                                       NO : MULTIPLE LINES PER DEPTH STEP
VEND.                                  ENVERUS : VENDOR
TYPE.                          ESS - OPEN HOLE : ENVERUS ESSENTIAL CURVES – ACCESSIBLE THROUGH ENVERUS PRISM(TM)
DOC.                                  51094636 : ENVERUS HEADER RAW DOCUMENT ID
#___________________________________________________________________________________________________ 
~WELL INFORMATION 
# FMikr3+JyUztgncWDJlJj4UAVtjFs/xFdFTkOn/rCNZKdsWfgftU4ooQRZEXdd26HCoruynA4NvJdeWU6aB/BQ== 
# MNEM.UNIT                                              DATA : DESCRIPTION OF MNEMONIC 
#-----.-----                    ----------------------------- : ----------------------------- 
CNTY.                                                   IRION : COUNTY 
STATE.                                                  TEXAS : STATE 
CNTRY.                                                    USA : COUNTRY 
API.                                             42-235-34485 : API (10 Digit) 
API_14.                                    42-235-34485-90-00 : API (14 Digits) 
API_14_std.                                 42-235-34485-9000 : API (14 Digits Standard) 
UWI.                                           42235344859000 : UNIQUE WELL ID 
WELL.                                    UNIVERSITY 40-13 #1H : WELL NAME
STRT.FT                                                 187.0 : START DEPTH
STOP.FT                                                7212.0 : STOP DEPTH
STEP.FT                                                   0.5 : STEP BETWEEN DEPTHS
NULL.                                                 -999.25 : NULL VALUE
PREV_UWI.                                        42-235-34485 : API WELLHOLE NUMBER 
COMP.                                     EOG RESOURCES, INC. : COMPANY NAME 
COUN.                                                   IRION : COUNTY 
DAT2.                                                   02000 : LOGGING DATE 2 
DAT3.                                                   02000 : LOGGING DATE 3 
DAT4.                                                   02000 : LOGGING DATE 4 
DATE.                                              2/-1/-2010 : LOGGING DATE 
DFT.                                                    FRESH : DRILLING FLUID TYPE 
DMF.                                                       KB : DRILLING MEASURED 
ENGI.                                              R. ATKISON : ENGINEER 1 NAME 
LOC.                                        660 FNL & 660 FEL : FIELD LOCATION 
FL1.                                        660 FNL & 660 FEL : FIELD LOCATION LINE 1 
FL2.                                        SECT.13, BLOCK 40 : FIELD LOCATION LINE 2 
FLD.                                            LIN  WOLFCAMP : FIELD NAME 
HDAT.                                                   02000 : DATUM 
LMF.                                                       KB : LOG MEASURED FROM 
LUL.                                                   ODESSA : LOGGING UNIT LOCATION 
MCSS.                                                    MEAS : MUD CAKE SAMPLE SOURCE 
MFSS.                                                    MEAS : MUD FILTRATE SAMPLE SOURCE 
MSS.                                                  MUD PIT : SOURCE OF MUD SAMPLE 
OS1.                                             CSNG-DSN-SDL : OTHER SERVICES LINE 1 
OS2.                                                 DLL-MSFL : OTHER SERVICES LINE 2 
PDAT.                                                      GL : PERMANENT DATUM 
R1.             ANNULAR HOLE VOLUME CALCULATED FOR 5.5 INCH CASING. : REMARKS LINE 1 
R2.             LOGGING SCALES AND INTERVALS AS PER CUSTOMER REQUEST. : REMARKS LINE 2 
R3.             GR/CSNG/DSNT/SDLT/WSTT/DLLT/MGRD RAN IN COMBINATION AS SHOWN : REMARKS LINE 3 
RANG.                                                     N/A : RANGE 
RDT2.                                                   02000 : CASING DATE 2 
RDT3.                                                   02000 : CASING DATE 3 
RDT4.                                                   02000 : CASING DATE 4 
RDT5.                                                   02000 : CASING DATE 5 
SECT.                                                     N/A : SECTION 
SON.                                                  7176848 : SERVICE/TICKET ORDER NUMBER 
PROV.                                                   TEXAS : STATE 
TOWN.                                                     N/A : TOWNSHIP 
WITN.                                              GREG PALKO : WITNESS 1 NAME
#___________________________________________________________________________________________________ 
~PARAMETER INFORMATION 
# MNEM.UNIT                                              DATA : DESCRIPTION OF MNEMONIC 
#-----.-----                    ----------------------------- : -----------------------------
#___________________________________________________________________________________________________ 
~CURVE INFORMATION 
# MNEM.UNIT           : CURVE DESCRIPTION 
#-----.-----          : ----------------------------- 
 DEPT.FT               : MEASURED DEPTH 
 DT__E.US/FT           : SONIC DELTA TRANSIT TIME (DTC - DELTA-T COMPRESSIONAL - WAVE SONIC) 
 DTS__E.US/FT          : SHEAR SONIC TRAVEL TIME (SINGLE DIPOLE SONIC - WAVE SONIC) 
 SPHI_LS__E.V/V        : SONIC POROSITY - LIMESTONE (SPHIDTC - SONIC POROSITY MTX=47.6 (DTC)) 
 TENS__E.LBS           : CABLE TENSION (TENSION) 
 #___________________________________________________________________________________________________ 
~A         DEPT          DT__E         DTS__E     SPHI_LS__E        TENS__E
# ...
         6335.0         66.222      116.60130        0.13170      5361.1396
         6335.5         67.768      117.28280        0.14260      5307.5898
         6336.0         70.173      118.01000        0.15960      5329.5532
         6336.5         71.847      119.69850        0.17150      5322.6382
         6337.0         72.338      122.05280        0.17490      5315.6333
         6337.5         72.748      124.47570        0.17790      5333.6821
         6338.0         73.417      127.20530        0.18260      5411.1475
         6338.5         76.512      129.93950        0.20450      5356.1416
         6339.0         81.548      134.25230        0.24010      5301.3623
         6339.5         85.864      138.67430        0.27060      5251.3999
         6340.0         87.603      142.12340        0.28290      5300.2905
         6340.5         85.280      142.74180        0.26650      5347.1851
         6341.0         82.587      141.74620        0.24740      5330.3433
         6341.5         81.632      139.75020        0.24070      5325.3574
         6342.0         81.510      138.53200        0.23980      5405.3608
         6342.5         81.098      136.68320        0.23690      5428.3389
         6343.0         80.080      134.31390        0.22970      5438.6953
         6343.5         79.379      133.44660        0.22470      5402.2134
         6344.0         78.950      132.51980        0.22170      5345.2783
         6344.5         76.471      129.75470        0.20420      5332.9375
         6345.0         71.819      125.29690        0.17130      5397.3735
         6345.5         68.662      122.95610        0.14900      5377.8130
         6346.0         67.462      121.36890        0.14050      5336.8516
         6346.5         66.893      119.43460        0.13640      5373.9429
         6347.0         67.529      119.36490        0.14090      5454.0146
         6347.5         70.217      122.38830        0.16000      5400.9829
         6348.0         74.994      128.17880        0.19370      5278.3384
         6348.5         79.095      132.78160        0.22270      5298.3394
         6349.0         80.316      135.69880        0.23140      5293.0596
         6349.5         78.995      136.90420        0.22200      5291.2549
         6350.0         76.944      136.54310        0.20750      5337.2915
         6350.5         76.335      135.69930        0.20320      5302.2534
         6351.0         76.901      135.30600        0.20720      5214.2412
         6351.5         77.537      136.08570        0.21170      5147.5039
         6352.0         78.041      137.19410        0.21530      5177.1831
         6352.5         79.319      137.75730        0.22430      5201.6738
         6353.0         81.252      138.40830        0.23800      5174.2837
         6353.5         82.544      139.38060        0.24710      5227.3940
         6354.0         82.805      140.06380        0.24900      5377.8130
         6354.5         82.552      139.90800        0.24720      5374.4399
         6355.0         81.750      138.61100        0.24150      5250.6440
         6355.5         80.288      136.27340        0.23120      5312.1694
         6356.0         78.217      133.78430        0.21650      5417.7124
         6356.5         74.812      132.37620        0.19240      5409.2856
         6357.0         74.021      132.60230        0.18690      5337.3257
         6357.5         76.165      133.62400        0.20200      5310.2627
         6358.0         79.257      135.21150        0.22390      5321.6118
         6358.5         81.212      137.57350        0.23770      5266.3125
         6359.0         82.660      139.61700        0.24790      5249.5610
         6359.5         83.772      141.32910        0.25580      5319.6484
         6360.0         84.321      141.94560        0.25970      5399.8779
         6360.5         84.001      141.36540        0.25740      5342.7178
         6361.0         82.717      139.73330        0.24840      5257.4688
         6361.5         81.745      137.49750        0.24150      5232.3921
         6362.0         80.670      136.34530        0.23390      5256.2842
         6362.5         76.425      135.27450        0.20390      5293.3081
         6363.0         74.662      132.10580        0.19140      5369.1719
         6363.5         73.675      128.85060        0.18440      5401.4004
         6364.0         71.508      126.63970        0.16910      5315.3389
         6364.5         70.476      124.90400        0.16180      5286.5400
         6365.0         70.062      123.45570        0.15890      5358.9395
         6365.5         69.314      122.03220        0.15360      5368.3364
         6366.0         68.589      121.01300        0.14840      5306.1567
         6366.5         69.338      121.19310        0.15370      5207.1006
         6367.0         71.486      123.04910        0.16890      5111.7207
         6367.5         74.286      125.73440        0.18870      5208.1382
         6368.0         77.829      129.48470        0.21380      5168.0684
         6368.5         80.777      133.22730        0.23460      5175.7622
         6369.0         81.988      136.14530        0.24320      5188.6108
         6369.5         82.711      138.93090        0.24830      5238.3022
         6370.0         84.566      144.09090        0.26140      5235.1440
         6370.5         87.880      152.41660        0.28490      5199.5312
         6371.0         91.149      158.20600        0.30800      5146.5225
         6371.5         93.044      161.09140        0.32140      5278.6431
         6372.0         93.323      163.06010        0.32340      5344.2524
         6372.5         92.708      163.06020        0.31900      5142.5400
         6373.0         91.794      161.33020        0.31250      5043.3374
         6373.5         90.699      159.69630        0.30480      5153.5840
         6374.0         90.242      158.03450        0.30160      5273.0591
         6374.5         90.871      156.10530        0.30600      5256.7241
         6375.0         91.493      154.81460        0.31040      5250.3169
         6375.5         91.458      154.73990        0.31020      5327.0933
         6376.0         91.267      155.67130        0.30880      5354.6875
         6376.5         90.996      157.20690        0.30690      5284.4194
         6377.0         90.030      158.36740        0.30010      5203.8398
         6377.5         89.022      157.65770        0.29290      5191.5444
         6378.0         88.162      155.38970        0.28690      5227.8223
         6378.5         86.217      152.54080        0.27310      5226.5601
         6379.0         83.623      149.71380        0.25480      5238.4268
         6379.5         81.095      145.47300        0.23690      5250.3398
         6380.0         79.712      141.81340        0.22710      5288.1416
         6380.5         79.878      141.35970        0.22830      5284.0801
         6381.0         81.749      143.35350        0.24150      5283.9897
         6381.5         84.327      145.25560        0.25970      5282.7603
         6382.0         85.228      145.97340        0.26610      5294.0078
         6382.5         83.704      145.44700        0.25530      5413.7188
         6383.0         81.267      143.12640        0.23810      5472.2104
         6383.5         80.171      140.37840        0.23030      5424.7856
         6384.0         80.268      139.10720        0.23100      5364.6704
         6384.5         81.260      140.25630        0.23800      5424.6724
         6385.0         83.753      142.77520        0.25570      5467.8555
         6385.5         86.813      145.76170        0.27730      5442.9365
         6386.0         88.717      148.94190        0.29080      5366.7568
         6386.5         89.209      154.47200        0.29430      5352.5327
         6387.0         89.489      156.30980        0.29620      5405.0557
         6387.5         90.249      156.32680        0.30160      5491.6357
