###############################################
##         ENVERUS                           ##
##         ESS - Open Hole                   ##
##         PERMIAN / MIDLAND                 ##
##         Nov 03 2023  V4.0                 ##
##         42-235-34485-90-00                ##
###############################################
## Copyright 2017-2023  ENVERUS.  All Rights Reserved. 
## Confidential - Property of ENVERUS, use governed by terms and 
## conditions found within the existing Information Services Subscription Agreement 
## (as may be amended, the “ISSA”) between Customer and ENVERUS. 
## 
~VERSION INFORMATION
# MNEM.UNIT                               DATA : DESCRIPTION OF MNEMONIC
#-----.-----     ----------------------------- : -----------------------------
VERS.                                     2.00 : CWLS LOG ASCII STANDARD - VERSION 2.00
WRAP.                                       NO : MULTIPLE LINES PER DEPTH STEP
VEND.                                  ENVERUS : VENDOR
TYPE.                          ESS - OPEN HOLE : ENVERUS ESSENTIAL CURVES – ACCESSIBLE THROUGH ENVERUS PRISM(TM)
DOC.                                  51094636 : ENVERUS HEADER RAW DOCUMENT ID
#___________________________________________________________________________________________________ 
~WELL INFORMATION 
# FMikr3+JyUztgncWDJlJj4UAVtjFs/xFdFTkOn/rCNZKdsWfgftU4ooQRZEXdd26HCoruynA4NvJdeWU6aB/BQ== 
# MNEM.UNIT                                              DATA : DESCRIPTION OF MNEMONIC 
#-----.-----                    ----------------------------- : ----------------------------- 
CNTY.                                                   IRION : COUNTY 
STATE.                                                  TEXAS : STATE 
CNTRY.                                                    USA : COUNTRY 
API.                                             42-235-34485 : API (10 Digit) 
API_14.                                    42-235-34485-90-00 : API (14 Digits) 
API_14_std.                                 42-235-34485-9000 : API (14 Digits Standard) 
UWI.                                           42235344859000 : UNIQUE WELL ID 
WELL.                                    UNIVERSITY 40-13 #1H : WELL NAME
STRT.FT                                                 187.0 : START DEPTH
STOP.FT                                                7212.0 : STOP DEPTH
STEP.FT                                                   0.5 : STEP BETWEEN DEPTHS
NULL.                                                 -999.25 : NULL VALUE
PREV_UWI.                                        42-235-34485 : API WELLHOLE NUMBER 
COMP.                                     EOG RESOURCES, INC. : COMPANY NAME 
COUN.                                                   IRION : COUNTY 
DAT2.                                                   02000 : LOGGING DATE 2 
DAT3.                                                   02000 : LOGGING DATE 3 
DAT4.                                                   02000 : LOGGING DATE 4 
DATE.                                              2/-1/-2010 : LOGGING DATE 
DFT.                                                    FRESH : DRILLING FLUID TYPE 
DMF.                                                       KB : DRILLING MEASURED 
ENGI.                                              R. ATKISON : ENGINEER 1 NAME 
LOC.                                        660 FNL & 660 FEL : FIELD LOCATION 
FL1.                                        660 FNL & 660 FEL : FIELD LOCATION LINE 1 
FL2.                                        SECT.13, BLOCK 40 : FIELD LOCATION LINE 2 
FLD.                                            LIN  WOLFCAMP : FIELD NAME 
HDAT.                                                   02000 : DATUM 
LMF.                                                       KB : LOG MEASURED FROM 
LUL.                                                   ODESSA : LOGGING UNIT LOCATION 
MCSS.                                                    MEAS : MUD CAKE SAMPLE SOURCE 
MFSS.                                                    MEAS : MUD FILTRATE SAMPLE SOURCE 
MSS.                                                  MUD PIT : SOURCE OF MUD SAMPLE 
OS1.                                             CSNG-DSN-SDL : OTHER SERVICES LINE 1 
OS2.                                                 DLL-MSFL : OTHER SERVICES LINE 2 
PDAT.                                                      GL : PERMANENT DATUM 
R1.             ANNULAR HOLE VOLUME CALCULATED FOR 5.5 INCH CASING. : REMARKS LINE 1 
R2.             LOGGING SCALES AND INTERVALS AS PER CUSTOMER REQUEST. : REMARKS LINE 2 
R3.             GR/CSNG/DSNT/SDLT/WSTT/DLLT/MGRD RAN IN COMBINATION AS SHOWN : REMARKS LINE 3 
RANG.                                                     N/A : RANGE 
RDT2.                                                   02000 : CASING DATE 2 
RDT3.                                                   02000 : CASING DATE 3 
RDT4.                                                   02000 : CASING DATE 4 
RDT5.                                                   02000 : CASING DATE 5 
SECT.                                                     N/A : SECTION 
SON.                                                  7176848 : SERVICE/TICKET ORDER NUMBER 
PROV.                                                   TEXAS : STATE 
TOWN.                                                     N/A : TOWNSHIP 
WITN.                                              GREG PALKO : WITNESS 1 NAME
#___________________________________________________________________________________________________ 
~PARAMETER INFORMATION 
# MNEM.UNIT                                              DATA : DESCRIPTION OF MNEMONIC 
#-----.-----                    ----------------------------- : -----------------------------
#___________________________________________________________________________________________________ 
~CURVE INFORMATION 
# MNEM.UNIT           : CURVE DESCRIPTION 
#-----.-----          : ----------------------------- 
 DEPT.FT               : MEASURED DEPTH 
 DT__E.US/FT           : SONIC DELTA TRANSIT TIME (DTC - DELTA-T COMPRESSIONAL - WAVE SONIC) 
 DTS__E.US/FT          : SHEAR SONIC TRAVEL TIME (SINGLE DIPOLE SONIC - WAVE SONIC) 
 SPHI_LS__E.V/V        : SONIC POROSITY - LIMESTONE (SPHIDTC - SONIC POROSITY MTX=47.6 (DTC)) 
 TENS__E.LBS           : CABLE TENSION (TENSION) 
 #___________________________________________________________________________________________________ 
~A         DEPT          DT__E         DTS__E     SPHI_LS__E        TENS__E
# ...
         6759.0         84.807      145.58390        0.26310      5409.1733
         6759.5         84.195      145.04510        0.25880      5300.2686
         6760.0         83.527      145.32980        0.25410      5408.3384
         6760.5         83.038      145.12190        0.25060      5513.5659
         6761.0         82.702      144.68740        0.24820      5473.0674
         6761.5         82.983      144.66660        0.25020      5332.2383
         6762.0         83.766      143.70500        0.25580      5367.1855
         6762.5         84.259      143.38260        0.25930      5423.7373
         6763.0         84.001      143.20000        0.25740      5391.1694
         6763.5         83.200      141.31020        0.25180      5287.9380
         6764.0         82.038      140.57040        0.24360      5303.2915
         6764.5         80.808      140.10450        0.23490      5450.2920
         6765.0         80.811      140.29780        0.23490      5435.3110
         6765.5         83.234      143.20020        0.25200      5369.6562
         6766.0         87.037      146.57640        0.27890      5359.2104
         6766.5         88.900      147.92270        0.29210      5431.3970
         6767.0         88.470      147.70430        0.28900      5438.4243
         6767.5         86.183      145.69710        0.27290      5421.3452
         6768.0         83.481      142.57120        0.25380      5387.5703
         6768.5         81.862      139.89350        0.24230      5395.9297
         6769.0         81.077      137.75550        0.23680      5417.1821
         6769.5         80.736      136.02130        0.23430      5410.4702
         6770.0         80.371      135.15490        0.23180      5328.1323
         6770.5         79.554      134.44200        0.22600      5326.2593
         6771.0         78.895      133.50910        0.22130      5411.6553
         6771.5         78.680      133.25210        0.21980      5412.6592
         6772.0         78.815      133.85340        0.22080      5317.0088
         6772.5         79.364      134.83010        0.22460      5323.0327
         6773.0         80.111      135.03250        0.22990      5357.2256
         6773.5         80.619      134.54860        0.23350      5417.7803
         6774.0         80.106      134.26610        0.22990      5455.4014
         6774.5         77.562      133.31440        0.21190      5341.4326
         6775.0         74.870      132.49940        0.19290      5292.9692
         6775.5         75.995      133.00210        0.20080      5311.6274
         6776.0         79.026      135.27420        0.22220      5364.6592
         6776.5         81.539      138.02810        0.24000      5307.7476
         6777.0         82.503      140.63790        0.24680      5335.1597
         6777.5         83.359      141.93610        0.25290      5319.2310
         6778.0         84.562      143.80410        0.26140      5290.5210
         6778.5         85.086      143.49120        0.26510      5209.7964
         6779.0         84.535      142.37630        0.26120      5235.4150
         6779.5         82.994      141.17590        0.25030      5355.7925
         6780.0         81.162      139.74490        0.23740      5468.2729
         6780.5         80.332      138.32900        0.23150      5419.4272
         6781.0         81.066      137.67750        0.23670      5284.8696
         6781.5         82.649      137.89640        0.24790      5230.4180
         6782.0         83.822      139.02090        0.25620      5250.6221
         6782.5         84.045      140.72150        0.25770      5326.1011
         6783.0         83.746      141.45710        0.25560      5347.5015
         6783.5         83.422      141.29790        0.25330      5267.2036
         6784.0         82.965      140.60150        0.25010      5197.3423
         6784.5         82.264      139.67690        0.24520      5194.4878
         6785.0         81.250      138.94980        0.23800      5241.7769
         6785.5         80.228      138.64190        0.23080      5266.5044
         6786.0         79.608      138.08990        0.22640      5238.8101
         6786.5         79.217      137.83230        0.22360      5223.1523
         6787.0         79.323      136.57600        0.22440      5208.6792
         6787.5         79.565      136.02340        0.22610      5217.2300
         6788.0         79.047      135.37570        0.22240      5163.1162
         6788.5         78.558      134.55800        0.21890      5164.1201
         6789.0         78.933      134.27360        0.22160      5238.0322
         6789.5         79.325      134.01250        0.22440      5333.6372
         6790.0         79.007      133.73490        0.22210      5312.2598
         6790.5         78.304      133.92870        0.21710      5264.7671
         6791.0         77.982      134.37040        0.21490      5290.9385
         6791.5         78.213      134.92080        0.21650      5349.1812
         6792.0         78.381      135.33010        0.21770      5394.0908
         6792.5         78.245      134.75680        0.21670      5338.7695
         6793.0         78.427      134.98980        0.21800      5287.9268
         6793.5         79.183      134.74500        0.22340      5282.7490
         6794.0         79.794      135.14270        0.22770      5342.0405
         6794.5         79.988      136.07010        0.22910      5352.1372
         6795.0         79.991      136.82990        0.22910      5310.9399
         6795.5         79.866      137.68170        0.22820      5283.7529
         6796.0         79.946      138.74810        0.22880      5325.0181
         6796.5         80.393      138.65450        0.23190      5318.5312
         6797.0         81.112      139.24820        0.23700      5345.2002
         6797.5         81.289      138.79700        0.23830      5331.0308
         6798.0         80.424      137.35050        0.23210      5332.7007
         6798.5         79.066      135.18890        0.22250      5313.5234
         6799.0         76.614      131.17270        0.20520      5301.1035
         6799.5         72.917      126.60270        0.17900      5279.8726
         6800.0         69.737      122.94620        0.15660      5297.8989
         6800.5         67.797      120.24090        0.14280      5299.3994
         6801.0         67.198      118.12210        0.13860      5283.8208
         6801.5         68.145      116.49940        0.14530      5381.6821
         6802.0         69.551      114.38030        0.15520      5408.1235
         6802.5         69.250      114.40410        0.15310      5384.9648
         6803.0         67.514      113.12230        0.14080      5368.5625
         6803.5         66.313      109.96240        0.13230      5412.7715
         6804.0         65.228      107.28300        0.12470      5438.0298
         6804.5         62.947      105.13630        0.10850      5445.9263
         6805.0         59.892      102.74380        0.08690      5383.1592
         6805.5         57.356      100.60580        0.06900      5353.6377
         6806.0         55.162       98.35520        0.05350      5299.6934
         6806.5         52.992       96.48390        0.03810      5318.8257
         6807.0         50.858       96.31330        0.02300      5337.5625
         6807.5         48.864       96.89560        0.00890      5374.9927
         6808.0         48.665       98.28250        0.00750      5310.3076
         6808.5         51.973      101.39610        0.03090      5267.1367
         6809.0         58.227      107.79300        0.07520      5318.7124
         6809.5         63.318      115.08630        0.11120      5369.0020
         6810.0         67.087      120.34200        0.13780      5355.4990
         6810.5         69.575      123.75590        0.15540      5335.1597
         6811.0         70.970      126.09110        0.16530      5439.9136
         6811.5         71.961      127.05510        0.17230      5480.0728
