###############################################
##         ENVERUS                           ##
##         ESS - Open Hole                   ##
##         PERMIAN / MIDLAND                 ##
##         Nov 04 2023  V4.0                 ##
##         42-383-38290-90-00                ##
###############################################
## Copyright 2017-2023  ENVERUS.  All Rights Reserved. 
## Confidential - Property of ENVERUS, use governed by terms and 
## conditions found within the existing Information Services Subscription Agreement 
## (as may be amended, the “ISSA”) between Customer and ENVERUS. 
## 
~VERSION INFORMATION
# MNEM.UNIT                               DATA : DESCRIPTION OF MNEMONIC
#-----.-----     ----------------------------- : -----------------------------
VERS.                                     2.00 : CWLS LOG ASCII STANDARD - VERSION 2.00
WRAP.                                       NO : MULTIPLE LINES PER DEPTH STEP
VEND.                                  ENVERUS : VENDOR
TYPE.                          ESS - OPEN HOLE : ENVERUS ESSENTIAL CURVES – ACCESSIBLE THROUGH ENVERUS PRISM(TM)
DOC.                                  51094660 : ENVERUS HEADER RAW DOCUMENT ID
#___________________________________________________________________________________________________ 
~WELL INFORMATION 
# m1FPRISIcKBcMzk40yd34Gtphn5JoOH7jww50mYGKLfe2DZfACMCifCPsuzsX4y0yEiREccSdbTgxIOvDda2cA== 
# MNEM.UNIT                                              DATA : DESCRIPTION OF MNEMONIC 
#-----.-----                    ----------------------------- : ----------------------------- 
CNTY.                                                  REAGAN : COUNTY 
STATE.                                                  TEXAS : STATE 
CNTRY.                                                    USA : COUNTRY 
API.                                             42-383-38290 : API (10 Digit) 
API_14.                                    42-383-38290-90-00 : API (14 Digits) 
API_14_std.                                 42-383-38290-9000 : API (14 Digits Standard) 
UWI.                                           42383382909000 : UNIQUE WELL ID 
WELL.                                    UNIVERSITY 43-14 #6H : WELL NAME
STRT.FT                                                 900.0 : START DEPTH
STOP.FT                                                7359.0 : STOP DEPTH
STEP.FT                                                   0.5 : STEP BETWEEN DEPTHS
NULL.                                                 -999.25 : NULL VALUE
COMP.                       DEVON ENERGY PRODUCTION CO., L.P. : COMPANY 
FLD.                                           LIN (WOLFCAMP) : FIELD 
LOC.                                       201 FSL & 1115 FWL : LOCATION 
SRVC.                                             BAKER ATLAS : SERVICE COMPANY 
DATE.                                             25-AUG-2013 : LOG DATE 
PREV_APII.                                     42383382900000 : API NUMBER 
PREV_UWI.                                      42383382900000 : UNIQUE WELL ID
#___________________________________________________________________________________________________ 
~PARAMETER INFORMATION 
# MNEM.UNIT                                              DATA : DESCRIPTION OF MNEMONIC 
#-----.-----                    ----------------------------- : ----------------------------- 
HIDE.                                  COMPENSATED Z-DENSILOG : HEADER IDENTIFER 
HID1.                                 COMPENSATED NEUTRON LOG : HEADER IDENTIFER 
HID2.                                      DIGITAL SPECTRALOG : HEADER IDENTIFER 
HID3.                                           GAMMA RAY LOG : HEADER IDENTIFER 
CLAB.                                                  COUNTY : COUNTY LABEL (COMMENTS) 
SLAB.                                                   STATE : STATE LABEL (COMMENTS) 
FILE.                                                 MD10587 : FILE NUMBER 
CMT2.                                             FINAL PRINT : COMMENT 2 
FL1.                                          SEC.14, BLK. 43 : FIELD LOCATION 1 
FL3.                                  UNIVERSITY LAND SURVEY. : FIELD LOCATION 3 
OS2.                                                  HDIL/GR : OTHER SERVICES LINE 2 
OS3.                                                  XMAC/GR : OTHER SERVICES LINE 3 
OS4.                                                      BHP : OTHER SERVICES LINE 4 
PDAT.                                                    G.L. : PERMANENT DATUM 
EPD.FT                                                   2678 : ELEVATION OF PERM. DATUM 
LMF.                                                     K.B. : LOG MEASURED FROM 
APD.FT                                                     25 : ABOVE PERMANENT DATUM 
DMF.                                            KELLY BUSHING : DRILLING MEASURED FROM 
EKB.FT                                                   2703 : ELEVATION OF KELLY BUSHING 
EDF.FT                                                   2702 : ELEVATION OF DERRICK FLOOR 
EGL.FT                                                   2678 : ELEVATION OF GROUND LEVEL 
RUN.                                                        1 : RUN NUMBER 
TRIP.                                                       1 : TRIP NUMBER 
SON.                                                   636509 : SERVICE ORDER NUMBER 
TDD.FT                                                   7363 : TOTAL DEPTH - DRILLER 
TDL.FT                                                   7363 : TOTAL DEPTH - LOGGER 
BLI.FT                                                   7273 : BOTTOM LOG INTERVAL 
TLI.FT                                                    924 : TOP LOG INTERVAL 
CSIZ.IN                                                 9.625 : CASING SIZE 
CBDR.FT                                                   927 : CASING BOTTOM - DRILLER 
CBLO.FT                                                   924 : CASING BOTTOM - LOGGER 
BS.IN                                                    8.75 : BIT SIZE 
DFT.                                            OIL BASED MUD : DRILLING FLUID TYPE 
DFD.LB/G                                                    9 : DRILLING FLUID DENSITY 
DFV.S                                                      20 : DRILLING FLUID VISCOSITY 
MSS.                                                      OBM : MUD SAMPLE SOURCE 
MFSS.                                                      -- : MUD FILTRATE SAMPLE SOURCE 
MCSS.                                                      -- : MUD CAKE SAMPLE SOURCE 
TSC.                                                  7 HOURS : TIME SINCE CIRCULATION 
MRT.DEGF                                                  152 : MAXIMUM RECORDED TEMPERATURE 
LUN.                                                  HL-6713 : LOGGING UNIT NUMBER 
LUL.                                              MIDLAND, TX : LOGGING UNIT LOCATION 
ENGI.                                               O. ROBLES : ENGINEERS NAME 
WITN.                                                W. LUTKE : WITNESS NAME 
TSTR.                                           ZDL/CN/DSL/GR : TITLE SERVICE MNEMONIC 
TSTG.                                                      NA : TITLE SERVICE MNEMONIC 
STUS.                                                   FINAL : STATUS 
LCNM.                                             BAKER ATLAS : LOGGING COMPANY NAME 
LCC.                                                      150 : LOGGING COMPANY CODE 
OPMD.                                                 OH.WIRE : OPERATION MODE 
PANA.                                               O. ROBLES : PROCESSING ANALYST 
PCON.                                             BAKER ATLAS : PROCESSING CONTRACTOR
#___________________________________________________________________________________________________ 
~CURVE INFORMATION 
# MNEM.UNIT           : CURVE DESCRIPTION 
#-----.-----          : ----------------------------- 
 DEPT.FT               : MEASURED DEPTH 
 CALI.IN               : CALIPER (CALX - CALIPER FROM X-AXIS OF XY CALIPER(S)) 
 GR.API                : GAMMA RAY (GAMMA RAY) 
 SGR.API               : SPECTRAL GAMMA RAY (KTH - STRIPPED POTASSIUM-THORIUM) 
 SGR_TH_PPM.PPM        : SPECTRAL GAMMA RAY - THORIUM IN PPM (TH - THORIUM CONCENTRATION) 
 SGR_U_PPM.PPM         : SPECTRAL GAMMA RAY - URANIUM IN PPM (U - URANIUM CONTENT) 
 SP.MV                 : SPONTANEOUS POTENTIAL (SPDH - SPONTANEOUS POTENTIAL PROCESSED IN COMMON REMOTE) 
 DT.US/FT              : SONIC DELTA TRANSIT TIME (DT24 - SLOWNESS OVER 24-INCH INTERVAL) 
 PE.B/E                : PHOTOELECTRIC EFFECT/FACTOR (PHOTO ELECTRIC CROSS-SECTION) 
 RESS_10M2.OHMM        : RESISTIVITY SHALLOW - 10 IN 2 FT VERTICAL (M2R1 - VERTICAL 2-FOOT RESOLUTION MATCHED RESISTIVITY 10-INCH DOI) 
 RESS_20M2.OHMM        : RESISTIVITY SHALLOW - 20 IN 2 FT VERTICAL (M2R2 - VERTICAL 2-FOOT RESOLUTION MATCHED RESISTIVITY 20-INCH DOI) 
 RESM_30M2.OHMM        : RESISTIVITY MEDIUM - 30 IN 2 FT VERTICAL (M2R3 - VERTICAL 2-FOOT RESOLUTION MATCHED RESISTIVITY 30-INCH DOI) 
 RESD_60M2.OHMM        : RESISTIVITY DEEP - 60 IN 2 FT VERTICAL (M2R6 - VERTICAL 2-FOOT RESOLUTION MATCHED RESISTIVITY 60-INCH DOI) 
 RESD_90M2.OHMM        : RESISTIVITY DEEP - 90 IN 2 FT VERTICAL (M2R9 - VERTICAL 2-FOOT RESOLUTION MATCHED RESISTIVITY 90-INCH DOI) 
 RESD_120M2.OHMM       : RESISTIVITY DEEP - 120 IN 2 FT VERTICAL (M2RX - VERTICAL 2-FOOT RESOLUTION MATCHED RESISTIVITY 120-INCH DOI) 
 DPHI.V/V              : DENSITY POROSITY (PORZC - CORRECTED POROSITY) 
 NPHI.V/V              : NEUTRON POROSITY (CNC - BOREHOLE SIZE CORRECTED COMPENSATED NEUTRON POROSITY) 
 SPHI.V/V              : SONIC POROSITY (PORA - ACOUSTIC POROSITY) 
 DRHO.G/CC             : DENSITY CORRECTION (ZCOR - DENSITY CORRECTION) 
 RHOB.G/CC             : BULK DENSITY (ZDNC - BOREHOLE SIZE/MUD WEIGHT CORRECTED DENSITY) 
 TEMP.DEGF             : TEMPERATURE (WTBH - TEMPERATURE OF BOREHOLE) 
 #___________________________________________________________________________________________________ 
~A         DEPT           CALI             GR            SGR     SGR_TH_PPM      SGR_U_PPM             SP             DT             PE      RESS_10M2      RESS_20M2      RESM_30M2      RESD_60M2      RESD_90M2     RESD_120M2           DPHI           NPHI           SPHI           DRHO           RHOB           TEMP
# ...
         2603.0          8.984         17.011          8.945          0.424          1.078        -79.395         51.601         3.1070         29.340         31.305         33.489         36.185         38.709         41.336        0.01366        0.18667        0.02810        0.01600         2.6870        106.274
         2603.5          8.977         16.996          9.244          0.371          1.056        -78.926         51.693         3.1450         29.611         31.711         33.963         36.525         39.036         41.536        0.01565        0.19374        0.02874        0.01700         2.6830        106.334
         2604.0          8.968         16.682          9.454          0.413          1.033        -78.861         51.773         3.1290         30.462         32.910         35.291         37.758         40.265         42.697        0.02182        0.19223        0.02931        0.01600         2.6730        105.750
         2604.5          8.961         16.620          9.668          0.524          1.032        -78.964         51.863         3.1050         30.661         33.473         35.921         38.261         40.681         42.993        0.02778        0.18539        0.02994        0.01400         2.6620        105.576
         2605.0          8.963         17.180          9.876          0.681          1.099        -78.663         52.061         3.1450         28.773         31.665         33.983         36.106         38.275         40.321        0.03160        0.17701        0.03133        0.01400         2.6560        106.092
         2605.5          8.973         18.272         10.039          0.880          1.245        -77.949         52.459         3.2190         24.996         27.603         29.590         31.408         33.206         34.879        0.03278        0.17034        0.03412        0.01400         2.6540        106.366
         2606.0          8.987         19.908          9.953          1.016          1.497        -77.363         53.032         3.2080         20.645         22.777         24.351         25.831         27.253         28.558        0.03256        0.16415        0.03815        0.01500         2.6540        106.220
         2606.5          8.995         22.295          9.728          0.998          1.833        -76.918         53.627         3.1450         16.928         18.601         19.804         20.991         22.118         23.136        0.03279        0.15771        0.04232        0.01500         2.6540        106.197
         2607.0          8.995         24.894          9.900          0.939          2.064        -76.837         54.051         3.1480         14.645         16.013         16.973         17.977         18.934         19.785        0.03449        0.15524        0.04530        0.01300         2.6510        106.199
         2607.5          8.991         25.918         10.153          0.956          2.114        -77.931         54.189         3.1630         13.848         15.060         15.898         16.835         17.737         18.526        0.03526        0.15724        0.04627        0.01100         2.6500        105.964
         2608.0          8.991         24.814          9.911          1.036          2.078        -79.264         54.052         3.1030         14.062         15.207         16.007         16.964         17.887         18.683        0.03214        0.16036        0.04531        0.01100         2.6550        105.685
         2608.5          8.993         22.966          9.467          1.171          2.011        -79.141         53.824         3.0510         14.548         15.639         16.448         17.469         18.440         19.272        0.02764        0.16211        0.04371        0.01200         2.6630        105.516
         2609.0          8.994         21.940          9.318          1.321          1.962        -78.138         53.772         3.0560         14.446         15.415         16.222         17.288         18.270         19.111        0.02716        0.16104        0.04334        0.01200         2.6640        105.571
         2609.5          8.990         22.612          9.783          1.465          1.960        -77.416         54.059         2.9920         13.374         14.127         14.880         15.922         16.838         17.632        0.03177        0.16060        0.04536        0.01200         2.6560        105.846
         2610.0          8.975         24.529         10.729          1.588          2.010        -77.013         54.557         2.8090         12.123         12.628         13.303         14.294         15.122         15.860        0.03743        0.16606        0.04885        0.01200         2.6460        106.205
         2610.5          8.967         26.762         11.842          1.607          2.058        -77.237         54.883         2.6630         11.711         11.989         12.608         13.594         14.380         15.109        0.04037        0.17524        0.05114        0.01500         2.6410        106.556
         2611.0          8.977         28.490         12.733          1.548          2.061        -77.973         54.740         2.6990         12.473         12.518         13.109         14.191         14.975         15.768        0.03887        0.17999        0.05014        0.02000         2.6440        106.537
         2611.5          8.990         28.571         12.685          1.430          2.050        -78.319         54.224         2.8850         14.513         14.283         14.866         16.152         16.985         17.926        0.03524        0.17898        0.04652        0.02600         2.6500        106.002
         2612.0          8.995         25.897         10.861          1.079          2.012        -77.992         53.753         3.0880         17.789         17.200         17.842         19.444         20.374         21.559        0.03359        0.17593        0.04321        0.02700         2.6530        105.442
         2612.5          8.988         21.812          8.383          0.749          1.925        -77.474         53.617         3.1970         21.597         20.688         21.444         23.418         24.473         25.967        0.03655        0.17650        0.04225        0.02400         2.6470        105.440
         2613.0          8.975         19.363          7.321          0.748          1.834        -77.205         53.689         3.1770         24.077         23.279         24.147         26.331         27.515         29.272        0.04217        0.18051        0.04276        0.01700         2.6380        105.884
         2613.5          8.968         19.630          7.811          0.915          1.773        -77.570         53.654         3.0990         23.563         23.376         24.287         26.418         27.678         29.513        0.04404        0.18324        0.04251        0.01300         2.6350        106.243
         2614.0          8.979         21.235          9.284          1.168          1.691        -78.242         53.374         3.0780         21.626         21.962         22.973         24.988         26.204         27.997        0.03970        0.18117        0.04055        0.01300         2.6420        106.290
         2614.5          8.994         22.721         10.969          1.420          1.595        -78.345         53.008         3.1380         20.780         21.408         22.532         24.551         25.710         27.519        0.03678        0.17686        0.03798        0.01400         2.6470        106.207
         2615.0          8.999         23.428         12.059          1.570          1.519        -78.194         52.776         3.2000         21.474         22.185         23.412         25.526         26.702         28.623        0.04313        0.17249        0.03635        0.01200         2.6360        106.097
         2615.5          8.988         23.008         12.441          1.623          1.438        -78.333         52.681         3.1460         23.444         24.039         25.326         27.605         28.857         30.970        0.05328        0.17080        0.03568        0.01000         2.6190        105.773
