###############################################
##         ENVERUS                           ##
##         ESS - Open Hole                   ##
##         PERMIAN / MIDLAND                 ##
##         Nov 03 2023  V4.0                 ##
##         42-235-34485-90-00                ##
###############################################
## Copyright 2017-2023  ENVERUS.  All Rights Reserved. 
## Confidential - Property of ENVERUS, use governed by terms and 
## conditions found within the existing Information Services Subscription Agreement 
## (as may be amended, the “ISSA”) between Customer and ENVERUS. 
## 
~VERSION INFORMATION
# MNEM.UNIT                               DATA : DESCRIPTION OF MNEMONIC
#-----.-----     ----------------------------- : -----------------------------
VERS.                                     2.00 : CWLS LOG ASCII STANDARD - VERSION 2.00
WRAP.                                       NO : MULTIPLE LINES PER DEPTH STEP
VEND.                                  ENVERUS : VENDOR
TYPE.                          ESS - OPEN HOLE : ENVERUS ESSENTIAL CURVES – ACCESSIBLE THROUGH ENVERUS PRISM(TM)
DOC.                                  51094636 : ENVERUS HEADER RAW DOCUMENT ID
#___________________________________________________________________________________________________ 
~WELL INFORMATION 
# FMikr3+JyUztgncWDJlJj4UAVtjFs/xFdFTkOn/rCNZKdsWfgftU4ooQRZEXdd26HCoruynA4NvJdeWU6aB/BQ== 
# MNEM.UNIT                                              DATA : DESCRIPTION OF MNEMONIC 
#-----.-----                    ----------------------------- : ----------------------------- 
CNTY.                                                   IRION : COUNTY 
STATE.                                                  TEXAS : STATE 
CNTRY.                                                    USA : COUNTRY 
API.                                             42-235-34485 : API (10 Digit) 
API_14.                                    42-235-34485-90-00 : API (14 Digits) 
API_14_std.                                 42-235-34485-9000 : API (14 Digits Standard) 
UWI.                                           42235344859000 : UNIQUE WELL ID 
WELL.                                    UNIVERSITY 40-13 #1H : WELL NAME
STRT.FT                                                 187.0 : START DEPTH
STOP.FT                                                7212.0 : STOP DEPTH
STEP.FT                                                   0.5 : STEP BETWEEN DEPTHS
NULL.                                                 -999.25 : NULL VALUE
PREV_UWI.                                        42-235-34485 : API WELLHOLE NUMBER 
COMP.                                     EOG RESOURCES, INC. : COMPANY NAME 
COUN.                                                   IRION : COUNTY 
DAT2.                                                   02000 : LOGGING DATE 2 
DAT3.                                                   02000 : LOGGING DATE 3 
DAT4.                                                   02000 : LOGGING DATE 4 
DATE.                                              2/-1/-2010 : LOGGING DATE 
DFT.                                                    FRESH : DRILLING FLUID TYPE 
DMF.                                                       KB : DRILLING MEASURED 
ENGI.                                              R. ATKISON : ENGINEER 1 NAME 
LOC.                                        660 FNL & 660 FEL : FIELD LOCATION 
FL1.                                        660 FNL & 660 FEL : FIELD LOCATION LINE 1 
FL2.                                        SECT.13, BLOCK 40 : FIELD LOCATION LINE 2 
FLD.                                            LIN  WOLFCAMP : FIELD NAME 
HDAT.                                                   02000 : DATUM 
LMF.                                                       KB : LOG MEASURED FROM 
LUL.                                                   ODESSA : LOGGING UNIT LOCATION 
MCSS.                                                    MEAS : MUD CAKE SAMPLE SOURCE 
MFSS.                                                    MEAS : MUD FILTRATE SAMPLE SOURCE 
MSS.                                                  MUD PIT : SOURCE OF MUD SAMPLE 
OS1.                                             CSNG-DSN-SDL : OTHER SERVICES LINE 1 
OS2.                                                 DLL-MSFL : OTHER SERVICES LINE 2 
PDAT.                                                      GL : PERMANENT DATUM 
R1.             ANNULAR HOLE VOLUME CALCULATED FOR 5.5 INCH CASING. : REMARKS LINE 1 
R2.             LOGGING SCALES AND INTERVALS AS PER CUSTOMER REQUEST. : REMARKS LINE 2 
R3.             GR/CSNG/DSNT/SDLT/WSTT/DLLT/MGRD RAN IN COMBINATION AS SHOWN : REMARKS LINE 3 
RANG.                                                     N/A : RANGE 
RDT2.                                                   02000 : CASING DATE 2 
RDT3.                                                   02000 : CASING DATE 3 
RDT4.                                                   02000 : CASING DATE 4 
RDT5.                                                   02000 : CASING DATE 5 
SECT.                                                     N/A : SECTION 
SON.                                                  7176848 : SERVICE/TICKET ORDER NUMBER 
PROV.                                                   TEXAS : STATE 
TOWN.                                                     N/A : TOWNSHIP 
WITN.                                              GREG PALKO : WITNESS 1 NAME
#___________________________________________________________________________________________________ 
~PARAMETER INFORMATION 
# MNEM.UNIT                                              DATA : DESCRIPTION OF MNEMONIC 
#-----.-----                    ----------------------------- : -----------------------------
#___________________________________________________________________________________________________ 
~CURVE INFORMATION 
# MNEM.UNIT           : CURVE DESCRIPTION 
#-----.-----          : ----------------------------- 
 DEPT.FT               : MEASURED DEPTH 
 DT__E.US/FT           : SONIC DELTA TRANSIT TIME (DTC - DELTA-T COMPRESSIONAL - WAVE SONIC) 
 DTS__E.US/FT          : SHEAR SONIC TRAVEL TIME (SINGLE DIPOLE SONIC - WAVE SONIC) 
 SPHI_LS__E.V/V        : SONIC POROSITY - LIMESTONE (SPHIDTC - SONIC POROSITY MTX=47.6 (DTC)) 
 TENS__E.LBS           : CABLE TENSION (TENSION) 
 #___________________________________________________________________________________________________ 
~A         DEPT          DT__E         DTS__E     SPHI_LS__E        TENS__E
# ...
         5752.0         83.254      138.97710        0.25220      4953.9697
         5752.5         83.463      138.93160        0.25360      4938.3125
         5753.0         84.649      139.55280        0.26200      4951.0596
         5753.5         85.323      139.44200        0.26680      4945.2954
         5754.0         84.437      138.17340        0.26050      5011.1187
         5754.5         82.953      136.48010        0.25000      5014.8301
         5755.0         81.793      135.90650        0.24180      5024.8252
         5755.5         80.762      135.34250        0.23450      5005.5688
         5756.0         80.144      134.94630        0.23020      4971.6250
         5756.5         80.478      135.69440        0.23250      4972.5942
         5757.0         81.291      137.15080        0.23830      5036.9634
         5757.5         82.619      138.54410        0.24770      5093.0166
         5758.0         84.194      139.20920        0.25880      5023.6851
         5758.5         84.128      138.71220        0.25830      4940.9858
         5759.0         81.818      136.26660        0.24200      4953.4399
         5759.5         78.777      131.49760        0.22050      4999.1494
         5760.0         74.887      125.90140        0.19300      5016.8496
         5760.5         70.619      120.93340        0.16280      4974.8394
         5761.0         67.074      117.07250        0.13770      4958.6289
         5761.5         64.536      114.85170        0.11980      4949.4688
         5762.0         64.656      114.37400        0.12060      5021.9038
         5762.5         67.080      115.94070        0.13780      5115.9629
         5763.0         72.026      119.47270        0.17270      5068.4141
         5763.5         78.007      124.93290        0.21500      5085.2104
         5764.0         81.605      131.21140        0.24050      5122.4263
         5764.5         82.904      135.30530        0.24970      5105.6406
         5765.0         82.934      136.92240        0.24990      5052.8574
         5765.5         82.630      137.88190        0.24770      5017.8076
         5766.0         82.560      138.92380        0.24720      5049.9702
         5766.5         82.554      139.48820        0.24720      5112.0820
         5767.0         82.692      139.70320        0.24820      5091.3931
         5767.5         82.967      139.18610        0.25010      5036.8276
         5768.0         82.404      138.24010        0.24610      5063.4839
         5768.5         80.398      136.73170        0.23200      5137.0459
         5769.0         78.548      135.20250        0.21890      5120.3726
         5769.5         77.849      133.51100        0.21390      5040.1777
         5770.0         78.644      132.05580        0.21950      5012.0210
         5770.5         80.119      132.06760        0.23000      5002.1846
         5771.0         81.293      134.08700        0.23830      4986.5269
         5771.5         82.533      136.47600        0.24700      5043.5620
         5772.0         83.728      138.51060        0.25550      5086.3169
         5772.5         83.479      139.68320        0.25370      5024.6216
         5773.0         82.457      140.01730        0.24650      5047.4087
         5773.5         81.893      139.76950        0.24250      5069.4297
         5774.0         81.894      139.97410        0.24250      5054.6182
         5774.5         82.498      140.57720        0.24680      5102.8999
         5775.0         83.062      140.15490        0.25080      5161.4014
         5775.5         83.063      140.44440        0.25080      5021.8584
         5776.0         83.077      139.59840        0.25090      4901.8413
         5776.5         82.873      137.92640        0.24950      5028.2314
         5777.0         82.172      137.01400        0.24450      5090.6143
         5777.5         81.640      136.55470        0.24070      5012.0659
         5778.0         80.626      135.30550        0.23360      5007.0688
         5778.5         78.634      133.41520        0.21950      5131.2822
         5779.0         76.636      131.33780        0.20530      5136.8325
         5779.5         74.921      128.31170        0.19320      5029.5293
         5780.0         73.234      125.74320        0.18130      5013.8716
         5780.5         72.352      124.60270        0.17500      5052.4399
         5781.0         73.489      123.82150        0.18310      5067.2749
         5781.5         75.574      124.00820        0.19780      5097.0674
         5782.0         78.695      127.83420        0.21990      5046.6875
         5782.5         82.337      134.11310        0.24570      5049.8008
         5783.0         83.802      137.86570        0.25600      5031.4805
         5783.5         84.271      139.57060        0.25930      5053.3315
         5784.0         84.245      139.80650        0.25920      5079.4800
         5784.5         84.075      139.78930        0.25800      5064.4766
         5785.0         84.320      140.12870        0.25970      4977.8291
         5785.5         84.452      140.58850        0.26060      5011.6719
         5786.0         83.815      140.95880        0.25610      5099.1543
         5786.5         83.199      141.35390        0.25180      5043.6636
         5787.0         83.234      141.42140        0.25200      4920.5562
         5787.5         83.741      141.49670        0.25560      4958.7314
         5788.0         84.715      142.40700        0.26250      5091.6641
         5788.5         85.330      143.39300        0.26680      5102.3809
         5789.0         85.419      143.08880        0.26750      5036.9292
         5789.5         85.460      142.05800        0.26770      5041.4756
         5790.0         85.021      141.49460        0.26460      5097.2031
         5790.5         84.396      141.98410        0.26020      5064.2397
         5791.0         83.940      142.31800        0.25700      5087.0273
         5791.5         83.243      140.91700        0.25210      5050.8164
         5792.0         82.022      139.01520        0.24340      4993.0586
         5792.5         79.557      136.94990        0.22600      5022.2871
         5793.0         77.124      134.04130        0.20880      5099.6167
         5793.5         76.682      131.35120        0.20570      5035.6885
         5794.0         77.138      130.87450        0.20890      4975.8770
         5794.5         77.486      131.51280        0.21140      4953.7671
         5795.0         78.279      133.22960        0.21700      4959.6787
         5795.5         81.733      137.70980        0.24140      5018.8237
         5796.0         86.796      141.13490        0.27720      4982.0146
         5796.5         88.674      143.18790        0.29050      4937.2856
         5797.0         88.813      144.57920        0.29150      5046.6079
         5797.5         88.824      145.22380        0.29150      5103.8691
         5798.0         88.281      144.55130        0.28770      5004.4858
         5798.5         86.682      143.82130        0.27640      5047.6567
         5799.0         85.114      143.92210        0.26530      5113.6387
         5799.5         85.063      144.59220        0.26490      5041.3179
         5800.0         86.439      145.77630        0.27470      4968.2749
         5800.5         88.369      147.38830        0.28830      5077.7656
         5801.0         89.913      149.33100        0.29920      5128.4731
         5801.5         90.167      151.09460        0.30100      5022.1738
         5802.0         89.428      151.65910        0.29580      4992.6519
         5802.5         88.720      149.69230        0.29080      5053.0605
         5803.0         87.998      147.19910        0.28570      5048.9434
         5803.5         86.153      144.18700        0.27260      5028.0400
         5804.0         83.236      141.30310        0.25200      4981.6641
         5804.5         80.482      138.92400        0.23250      5029.9346
