###############################################
##         ENVERUS                           ##
##         ESS - Open Hole                   ##
##         PERMIAN / MIDLAND                 ##
##         Nov 03 2023  V4.0                 ##
##         42-235-34485-90-00                ##
###############################################
## Copyright 2017-2023  ENVERUS.  All Rights Reserved. 
## Confidential - Property of ENVERUS, use governed by terms and 
## conditions found within the existing Information Services Subscription Agreement 
## (as may be amended, the “ISSA”) between Customer and ENVERUS. 
## 
~VERSION INFORMATION
# MNEM.UNIT                               DATA : DESCRIPTION OF MNEMONIC
#-----.-----     ----------------------------- : -----------------------------
VERS.                                     2.00 : CWLS LOG ASCII STANDARD - VERSION 2.00
WRAP.                                       NO : MULTIPLE LINES PER DEPTH STEP
VEND.                                  ENVERUS : VENDOR
TYPE.                          ESS - OPEN HOLE : ENVERUS ESSENTIAL CURVES – ACCESSIBLE THROUGH ENVERUS PRISM(TM)
DOC.                                  51094636 : ENVERUS HEADER RAW DOCUMENT ID
#___________________________________________________________________________________________________ 
~WELL INFORMATION 
# FMikr3+JyUztgncWDJlJj4UAVtjFs/xFdFTkOn/rCNZKdsWfgftU4ooQRZEXdd26HCoruynA4NvJdeWU6aB/BQ== 
# MNEM.UNIT                                              DATA : DESCRIPTION OF MNEMONIC 
#-----.-----                    ----------------------------- : ----------------------------- 
CNTY.                                                   IRION : COUNTY 
STATE.                                                  TEXAS : STATE 
CNTRY.                                                    USA : COUNTRY 
API.                                             42-235-34485 : API (10 Digit) 
API_14.                                    42-235-34485-90-00 : API (14 Digits) 
API_14_std.                                 42-235-34485-9000 : API (14 Digits Standard) 
UWI.                                           42235344859000 : UNIQUE WELL ID 
WELL.                                    UNIVERSITY 40-13 #1H : WELL NAME
STRT.FT                                                 187.0 : START DEPTH
STOP.FT                                                7212.0 : STOP DEPTH
STEP.FT                                                   0.5 : STEP BETWEEN DEPTHS
NULL.                                                 -999.25 : NULL VALUE
PREV_UWI.                                        42-235-34485 : API WELLHOLE NUMBER 
COMP.                                     EOG RESOURCES, INC. : COMPANY NAME 
COUN.                                                   IRION : COUNTY 
DAT2.                                                   02000 : LOGGING DATE 2 
DAT3.                                                   02000 : LOGGING DATE 3 
DAT4.                                                   02000 : LOGGING DATE 4 
DATE.                                              2/-1/-2010 : LOGGING DATE 
DFT.                                                    FRESH : DRILLING FLUID TYPE 
DMF.                                                       KB : DRILLING MEASURED 
ENGI.                                              R. ATKISON : ENGINEER 1 NAME 
LOC.                                        660 FNL & 660 FEL : FIELD LOCATION 
FL1.                                        660 FNL & 660 FEL : FIELD LOCATION LINE 1 
FL2.                                        SECT.13, BLOCK 40 : FIELD LOCATION LINE 2 
FLD.                                            LIN  WOLFCAMP : FIELD NAME 
HDAT.                                                   02000 : DATUM 
LMF.                                                       KB : LOG MEASURED FROM 
LUL.                                                   ODESSA : LOGGING UNIT LOCATION 
MCSS.                                                    MEAS : MUD CAKE SAMPLE SOURCE 
MFSS.                                                    MEAS : MUD FILTRATE SAMPLE SOURCE 
MSS.                                                  MUD PIT : SOURCE OF MUD SAMPLE 
OS1.                                             CSNG-DSN-SDL : OTHER SERVICES LINE 1 
OS2.                                                 DLL-MSFL : OTHER SERVICES LINE 2 
PDAT.                                                      GL : PERMANENT DATUM 
R1.             ANNULAR HOLE VOLUME CALCULATED FOR 5.5 INCH CASING. : REMARKS LINE 1 
R2.             LOGGING SCALES AND INTERVALS AS PER CUSTOMER REQUEST. : REMARKS LINE 2 
R3.             GR/CSNG/DSNT/SDLT/WSTT/DLLT/MGRD RAN IN COMBINATION AS SHOWN : REMARKS LINE 3 
RANG.                                                     N/A : RANGE 
RDT2.                                                   02000 : CASING DATE 2 
RDT3.                                                   02000 : CASING DATE 3 
RDT4.                                                   02000 : CASING DATE 4 
RDT5.                                                   02000 : CASING DATE 5 
SECT.                                                     N/A : SECTION 
SON.                                                  7176848 : SERVICE/TICKET ORDER NUMBER 
PROV.                                                   TEXAS : STATE 
TOWN.                                                     N/A : TOWNSHIP 
WITN.                                              GREG PALKO : WITNESS 1 NAME
#___________________________________________________________________________________________________ 
~PARAMETER INFORMATION 
# MNEM.UNIT                                              DATA : DESCRIPTION OF MNEMONIC 
#-----.-----                    ----------------------------- : -----------------------------
#___________________________________________________________________________________________________ 
~CURVE INFORMATION 
# MNEM.UNIT           : CURVE DESCRIPTION 
#-----.-----          : ----------------------------- 
 DEPT.FT               : MEASURED DEPTH 
 DT__E.US/FT           : SONIC DELTA TRANSIT TIME (DTC - DELTA-T COMPRESSIONAL - WAVE SONIC) 
 DTS__E.US/FT          : SHEAR SONIC TRAVEL TIME (SINGLE DIPOLE SONIC - WAVE SONIC) 
 SPHI_LS__E.V/V        : SONIC POROSITY - LIMESTONE (SPHIDTC - SONIC POROSITY MTX=47.6 (DTC)) 
 TENS__E.LBS           : CABLE TENSION (TENSION) 
 #___________________________________________________________________________________________________ 
~A         DEPT          DT__E         DTS__E     SPHI_LS__E        TENS__E
# ...
         4957.0         85.571      144.60160        0.26850      4781.7461
         4957.5         85.365      145.37980        0.26710      4810.9404
         4958.0         85.090      146.07710        0.26510      4756.0259
         4958.5         85.086      146.35340        0.26510      4663.1172
         4959.0         85.346      146.57870        0.26690      4755.0557
         4959.5         85.249      147.25040        0.26630      4868.6191
         4960.0         84.984      148.09020        0.26440      4788.1313
         4960.5         85.817      148.72720        0.27030      4708.7710
         4961.0         87.610      148.35570        0.28300      4785.8408
         4961.5         88.590      149.45980        0.28990      4788.6611
         4962.0         88.506      150.62230        0.28930      4728.7373
         4962.5         88.331      149.70550        0.28810      4732.4380
         4963.0         87.050      148.06200        0.27900      4801.8706
         4963.5         84.870      146.54520        0.26360      4779.9072
         4964.0         83.839      145.26730        0.25630      4810.1069
         4964.5         83.443      143.88960        0.25350      4811.9111
         4965.0         82.993      142.87150        0.25030      4723.1309
         4965.5         82.517      142.45020        0.24690      4699.5991
         4966.0         82.531      142.39560        0.24700      4754.6724
         4966.5         83.251      143.17830        0.25210      4794.0317
         4967.0         83.815      143.15550        0.25610      4712.9111
         4967.5         83.942      143.05550        0.25700      4754.7285
         4968.0         83.950      142.88070        0.25710      4804.5337
         4968.5         84.010      142.36820        0.25750      4719.8374
         4969.0         83.972      141.37690        0.25720      4675.1875
         4969.5         83.791      141.21700        0.25590      4810.3438
         4970.0         83.912      141.46190        0.25680      4808.1890
         4970.5         83.704      141.12450        0.25530      4698.4941
         4971.0         82.921      140.35930        0.24980      4689.2217
         4971.5         82.528      140.34070        0.24700      4723.5376
         4972.0         82.301      140.60400        0.24540      4697.5576
         4972.5         82.014      140.21780        0.24340      4760.4482
         4973.0         82.176      140.16480        0.24450      4805.7407
         4973.5         82.996      139.87810        0.25030      4685.9277
         4974.0         83.683      140.23860        0.25520      4726.8086
         4974.5         83.759      141.25340        0.25570      4839.6846
         4975.0         84.134      142.41570        0.25840      4818.7358
         4975.5         84.613      143.33010        0.26180      4707.2256
         4976.0         84.770      143.85260        0.26290      4769.4619
         4976.5         85.378      144.12570        0.26720      4830.3218
         4977.0         86.190      144.26950        0.27290      4773.4209
         4977.5         86.348      144.86950        0.27400      4697.6367
         4978.0         85.865      145.52490        0.27060      4789.6084
         4978.5         84.996      146.24410        0.26450      4864.5806
         4979.0         84.662      146.84140        0.26210      4713.8804
         4979.5         85.048      147.06000        0.26480      4632.5122
         4980.0         85.054      146.19620        0.26490      4806.5298
         4980.5         84.166      144.75930        0.25860      4802.3896
         4981.0         83.117      143.34570        0.25120      4719.5552
         4981.5         81.780      141.49940        0.24170      4799.8516
         4982.0         78.382      137.97470        0.21770      4847.9536
         4982.5         72.440      131.02380        0.17570      4742.7261
         4983.0         65.050      119.03290        0.12340      4702.7803
         4983.5         61.415      111.50550        0.09770      4853.7744
         4984.0         60.883      108.85170        0.09390      4911.4189
         4984.5         61.776      106.82010        0.10030      4863.5210
         4985.0         63.607      107.76600        0.11320      4758.4971
         4985.5         66.414      112.51950        0.13310      4725.4102
         4986.0         71.505      123.37300        0.16910      4749.0317
         4986.5         78.096      134.21920        0.21570      4751.4688
         4987.0         81.667      139.85370        0.24090      4676.8579
         4987.5         83.246      143.02280        0.25210      4729.4492
         4988.0         83.931      143.19050        0.25690      4784.1157
         4988.5         83.513      141.71520        0.25400      4796.8740
         4989.0         82.436      140.82630        0.24640      4786.6538
         4989.5         81.797      139.91030        0.24180      4788.8647
         4990.0         82.023      139.29440        0.24340      4749.1450
         4990.5         82.592      138.62620        0.24750      4721.9019
         4991.0         82.884      138.74010        0.24950      4828.2124
         4991.5         82.793      139.38610        0.24890      4836.1870
         4992.0         82.088      139.75160        0.24390      4719.9946
         4992.5         81.212      139.89600        0.23770      4689.2778
         4993.0         80.852      140.20610        0.23520      4868.8794
         4993.5         80.631      140.30740        0.23360      4882.6641
         4994.0         80.354      140.75760        0.23160      4710.2593
         4994.5         80.183      140.73190        0.23040      4762.6699
         4995.0         80.349      140.06270        0.23160      4877.3511
         4995.5         80.515      139.80880        0.23280      4749.0879
         4996.0         80.415      139.53100        0.23210      4662.0464
         4996.5         80.706      139.14970        0.23410      4759.5459
         4997.0         81.390      139.43250        0.23900      4866.1714
         4997.5         82.099      139.79060        0.24400      4775.5757
         4998.0         82.695      140.35880        0.24820      4706.9546
         4998.5         82.855      140.75190        0.24930      4894.6675
         4999.0         82.554      140.29750        0.24720      4903.3530
         4999.5         82.145      140.33240        0.24430      4744.3838
         5000.0         82.229      139.28540        0.24490      4762.0391
         5000.5         82.756      138.52970        0.24860      4845.3594
         5001.0         82.808      138.63780        0.24900      4761.9487
         5001.5         82.855      138.81680        0.24930      4694.8618
         5002.0         83.533      139.25040        0.25410      4766.4717
         5002.5         84.224      140.40120        0.25900      4864.9077
         5003.0         84.995      141.91170        0.26450      4885.2817
         5003.5         85.815      143.33330        0.27030      4796.5576
         5004.0         86.206      143.76840        0.27300      4804.7485
         5004.5         86.246      142.95220        0.27330      4802.4800
         5005.0         85.541      141.44250        0.26830      4746.2007
         5005.5         83.659      139.85080        0.25500      4793.0381
         5006.0         81.513      138.52150        0.23980      4800.3823
         5006.5         80.453      137.39350        0.23230      4821.6914
         5007.0         80.607      136.63060        0.23340      4815.1489
         5007.5         80.641      135.99810        0.23370      4737.6387
         5008.0         80.163      135.06680        0.23030      4817.4502
         5008.5         78.971      132.86680        0.22190      4847.0063
         5009.0         75.957      128.73540        0.20050      4711.7036
         5009.5         71.162      122.99750        0.16660      4690.6538
