###############################################
##         ENVERUS                           ##
##         ESS - Open Hole                   ##
##         PERMIAN / MIDLAND                 ##
##         Nov 04 2023  V4.0                 ##
##         42-383-38290-90-00                ##
###############################################
## Copyright 2017-2023  ENVERUS.  All Rights Reserved. 
## Confidential - Property of ENVERUS, use governed by terms and 
## conditions found within the existing Information Services Subscription Agreement 
## (as may be amended, the “ISSA”) between Customer and ENVERUS. 
## 
~VERSION INFORMATION
# MNEM.UNIT                               DATA : DESCRIPTION OF MNEMONIC
#-----.-----     ----------------------------- : -----------------------------
VERS.                                     2.00 : CWLS LOG ASCII STANDARD - VERSION 2.00
WRAP.                                       NO : MULTIPLE LINES PER DEPTH STEP
VEND.                                  ENVERUS : VENDOR
TYPE.                          ESS - OPEN HOLE : ENVERUS ESSENTIAL CURVES – ACCESSIBLE THROUGH ENVERUS PRISM(TM)
DOC.                                  51094660 : ENVERUS HEADER RAW DOCUMENT ID
#___________________________________________________________________________________________________ 
~WELL INFORMATION 
# m1FPRISIcKBcMzk40yd34Gtphn5JoOH7jww50mYGKLfe2DZfACMCifCPsuzsX4y0yEiREccSdbTgxIOvDda2cA== 
# MNEM.UNIT                                              DATA : DESCRIPTION OF MNEMONIC 
#-----.-----                    ----------------------------- : ----------------------------- 
CNTY.                                                  REAGAN : COUNTY 
STATE.                                                  TEXAS : STATE 
CNTRY.                                                    USA : COUNTRY 
API.                                             42-383-38290 : API (10 Digit) 
API_14.                                    42-383-38290-90-00 : API (14 Digits) 
API_14_std.                                 42-383-38290-9000 : API (14 Digits Standard) 
UWI.                                           42383382909000 : UNIQUE WELL ID 
WELL.                                    UNIVERSITY 43-14 #6H : WELL NAME
STRT.FT                                                 900.0 : START DEPTH
STOP.FT                                                7359.0 : STOP DEPTH
STEP.FT                                                   0.5 : STEP BETWEEN DEPTHS
NULL.                                                 -999.25 : NULL VALUE
COMP.                       DEVON ENERGY PRODUCTION CO., L.P. : COMPANY 
FLD.                                           LIN (WOLFCAMP) : FIELD 
LOC.                                       201 FSL & 1115 FWL : LOCATION 
SRVC.                                             BAKER ATLAS : SERVICE COMPANY 
DATE.                                             25-AUG-2013 : LOG DATE 
PREV_APII.                                     42383382900000 : API NUMBER 
PREV_UWI.                                      42383382900000 : UNIQUE WELL ID
#___________________________________________________________________________________________________ 
~PARAMETER INFORMATION 
# MNEM.UNIT                                              DATA : DESCRIPTION OF MNEMONIC 
#-----.-----                    ----------------------------- : ----------------------------- 
HIDE.                                  COMPENSATED Z-DENSILOG : HEADER IDENTIFER 
HID1.                                 COMPENSATED NEUTRON LOG : HEADER IDENTIFER 
HID2.                                      DIGITAL SPECTRALOG : HEADER IDENTIFER 
HID3.                                           GAMMA RAY LOG : HEADER IDENTIFER 
CLAB.                                                  COUNTY : COUNTY LABEL (COMMENTS) 
SLAB.                                                   STATE : STATE LABEL (COMMENTS) 
FILE.                                                 MD10587 : FILE NUMBER 
CMT2.                                             FINAL PRINT : COMMENT 2 
FL1.                                          SEC.14, BLK. 43 : FIELD LOCATION 1 
FL3.                                  UNIVERSITY LAND SURVEY. : FIELD LOCATION 3 
OS2.                                                  HDIL/GR : OTHER SERVICES LINE 2 
OS3.                                                  XMAC/GR : OTHER SERVICES LINE 3 
OS4.                                                      BHP : OTHER SERVICES LINE 4 
PDAT.                                                    G.L. : PERMANENT DATUM 
EPD.FT                                                   2678 : ELEVATION OF PERM. DATUM 
LMF.                                                     K.B. : LOG MEASURED FROM 
APD.FT                                                     25 : ABOVE PERMANENT DATUM 
DMF.                                            KELLY BUSHING : DRILLING MEASURED FROM 
EKB.FT                                                   2703 : ELEVATION OF KELLY BUSHING 
EDF.FT                                                   2702 : ELEVATION OF DERRICK FLOOR 
EGL.FT                                                   2678 : ELEVATION OF GROUND LEVEL 
RUN.                                                        1 : RUN NUMBER 
TRIP.                                                       1 : TRIP NUMBER 
SON.                                                   636509 : SERVICE ORDER NUMBER 
TDD.FT                                                   7363 : TOTAL DEPTH - DRILLER 
TDL.FT                                                   7363 : TOTAL DEPTH - LOGGER 
BLI.FT                                                   7273 : BOTTOM LOG INTERVAL 
TLI.FT                                                    924 : TOP LOG INTERVAL 
CSIZ.IN                                                 9.625 : CASING SIZE 
CBDR.FT                                                   927 : CASING BOTTOM - DRILLER 
CBLO.FT                                                   924 : CASING BOTTOM - LOGGER 
BS.IN                                                    8.75 : BIT SIZE 
DFT.                                            OIL BASED MUD : DRILLING FLUID TYPE 
DFD.LB/G                                                    9 : DRILLING FLUID DENSITY 
DFV.S                                                      20 : DRILLING FLUID VISCOSITY 
MSS.                                                      OBM : MUD SAMPLE SOURCE 
MFSS.                                                      -- : MUD FILTRATE SAMPLE SOURCE 
MCSS.                                                      -- : MUD CAKE SAMPLE SOURCE 
TSC.                                                  7 HOURS : TIME SINCE CIRCULATION 
MRT.DEGF                                                  152 : MAXIMUM RECORDED TEMPERATURE 
LUN.                                                  HL-6713 : LOGGING UNIT NUMBER 
LUL.                                              MIDLAND, TX : LOGGING UNIT LOCATION 
ENGI.                                               O. ROBLES : ENGINEERS NAME 
WITN.                                                W. LUTKE : WITNESS NAME 
TSTR.                                           ZDL/CN/DSL/GR : TITLE SERVICE MNEMONIC 
TSTG.                                                      NA : TITLE SERVICE MNEMONIC 
STUS.                                                   FINAL : STATUS 
LCNM.                                             BAKER ATLAS : LOGGING COMPANY NAME 
LCC.                                                      150 : LOGGING COMPANY CODE 
OPMD.                                                 OH.WIRE : OPERATION MODE 
PANA.                                               O. ROBLES : PROCESSING ANALYST 
PCON.                                             BAKER ATLAS : PROCESSING CONTRACTOR
#___________________________________________________________________________________________________ 
~CURVE INFORMATION 
# MNEM.UNIT           : CURVE DESCRIPTION 
#-----.-----          : ----------------------------- 
 DEPT.FT               : MEASURED DEPTH 
 CALI.IN               : CALIPER (CALX - CALIPER FROM X-AXIS OF XY CALIPER(S)) 
 GR.API                : GAMMA RAY (GAMMA RAY) 
 SGR.API               : SPECTRAL GAMMA RAY (KTH - STRIPPED POTASSIUM-THORIUM) 
 SGR_TH_PPM.PPM        : SPECTRAL GAMMA RAY - THORIUM IN PPM (TH - THORIUM CONCENTRATION) 
 SGR_U_PPM.PPM         : SPECTRAL GAMMA RAY - URANIUM IN PPM (U - URANIUM CONTENT) 
 SP.MV                 : SPONTANEOUS POTENTIAL (SPDH - SPONTANEOUS POTENTIAL PROCESSED IN COMMON REMOTE) 
 DT.US/FT              : SONIC DELTA TRANSIT TIME (DT24 - SLOWNESS OVER 24-INCH INTERVAL) 
 PE.B/E                : PHOTOELECTRIC EFFECT/FACTOR (PHOTO ELECTRIC CROSS-SECTION) 
 RESS_10M2.OHMM        : RESISTIVITY SHALLOW - 10 IN 2 FT VERTICAL (M2R1 - VERTICAL 2-FOOT RESOLUTION MATCHED RESISTIVITY 10-INCH DOI) 
 RESS_20M2.OHMM        : RESISTIVITY SHALLOW - 20 IN 2 FT VERTICAL (M2R2 - VERTICAL 2-FOOT RESOLUTION MATCHED RESISTIVITY 20-INCH DOI) 
 RESM_30M2.OHMM        : RESISTIVITY MEDIUM - 30 IN 2 FT VERTICAL (M2R3 - VERTICAL 2-FOOT RESOLUTION MATCHED RESISTIVITY 30-INCH DOI) 
 RESD_60M2.OHMM        : RESISTIVITY DEEP - 60 IN 2 FT VERTICAL (M2R6 - VERTICAL 2-FOOT RESOLUTION MATCHED RESISTIVITY 60-INCH DOI) 
 RESD_90M2.OHMM        : RESISTIVITY DEEP - 90 IN 2 FT VERTICAL (M2R9 - VERTICAL 2-FOOT RESOLUTION MATCHED RESISTIVITY 90-INCH DOI) 
 RESD_120M2.OHMM       : RESISTIVITY DEEP - 120 IN 2 FT VERTICAL (M2RX - VERTICAL 2-FOOT RESOLUTION MATCHED RESISTIVITY 120-INCH DOI) 
 DPHI.V/V              : DENSITY POROSITY (PORZC - CORRECTED POROSITY) 
 NPHI.V/V              : NEUTRON POROSITY (CNC - BOREHOLE SIZE CORRECTED COMPENSATED NEUTRON POROSITY) 
 SPHI.V/V              : SONIC POROSITY (PORA - ACOUSTIC POROSITY) 
 DRHO.G/CC             : DENSITY CORRECTION (ZCOR - DENSITY CORRECTION) 
 RHOB.G/CC             : BULK DENSITY (ZDNC - BOREHOLE SIZE/MUD WEIGHT CORRECTED DENSITY) 
 TEMP.DEGF             : TEMPERATURE (WTBH - TEMPERATURE OF BOREHOLE) 
 #___________________________________________________________________________________________________ 
~A         DEPT           CALI             GR            SGR     SGR_TH_PPM      SGR_U_PPM             SP             DT             PE      RESS_10M2      RESS_20M2      RESM_30M2      RESD_60M2      RESD_90M2     RESD_120M2           DPHI           NPHI           SPHI           DRHO           RHOB           TEMP
# ...
         7283.0          8.750       -999.250       -999.250       -999.250       -999.250        -21.346         70.412         3.1900         22.097         20.472         21.293         25.515         28.405         33.702        0.15354     -999.25000        0.16020       -0.00900         2.4470       -999.250
         7283.5          8.753       -999.250       -999.250       -999.250       -999.250        -22.404         75.840         3.3990         15.860         15.068         15.550         18.418         20.490         24.304        0.16182     -999.25000        0.19831        0.01200         2.4330       -999.250
         7284.0          8.767       -999.250       -999.250       -999.250       -999.250        -23.656         81.379         3.5000         12.152         11.756         12.095         14.262         15.862         18.831        0.16268     -999.25000        0.23721        0.04300         2.4320       -999.250
         7284.5          8.759       -999.250       -999.250       -999.250       -999.250        -23.803         83.760         3.5340         11.126         10.949         11.332         13.350         14.852         17.662        0.16026     -999.25000        0.25393        0.07400         2.4360       -999.250
         7285.0          8.737       -999.250       -999.250       -999.250       -999.250        -22.435         82.878         3.7040         11.362         11.419         11.928         14.061         15.665         18.675        0.16007     -999.25000        0.24774        0.10400         2.4360       -999.250
         7285.5          8.726       -999.250       -999.250       -999.250       -999.250        -21.343         81.370         4.0980         12.363         12.766         13.462         15.913         17.773         21.255        0.17055     -999.25000        0.23715        0.15100         2.4180       -999.250
         7286.0          8.731       -999.250       -999.250       -999.250       -999.250        -21.651         81.857      -999.2500         12.975         13.726         14.624         17.363         19.470         23.370        0.18696     -999.25000        0.24057        0.24900         2.3900       -999.250
         7286.5          8.744       -999.250       -999.250       -999.250       -999.250        -21.791         84.760      -999.2500         11.097         11.901         12.806         15.283         17.230         20.756     -999.25000     -999.25000        0.26096     -999.25000      -999.2500       -999.250
         7287.0          8.761       -999.250       -999.250       -999.250       -999.250        -21.333         88.450      -999.2500          8.265          8.809          9.544         11.451         12.985         15.696     -999.25000     -999.25000        0.28686     -999.25000      -999.2500       -999.250
         7287.5       -999.250       -999.250       -999.250       -999.250       -999.250        -21.567         90.833      -999.2500          6.987          7.323          7.958          9.604         10.946         13.274     -999.25000     -999.25000        0.30360     -999.25000      -999.2500       -999.250
         7288.0       -999.250       -999.250       -999.250       -999.250       -999.250        -22.764         90.758      -999.2500          7.257          7.454          8.081          9.803         11.211         13.630     -999.25000     -999.25000        0.30307     -999.25000      -999.2500       -999.250
         7288.5       -999.250       -999.250       -999.250       -999.250       -999.250        -24.001         88.366      -999.2500          8.547          8.620          9.286         11.321         12.970         15.797     -999.25000     -999.25000        0.28628     -999.25000      -999.2500       -999.250
         7289.0       -999.250       -999.250       -999.250       -999.250       -999.250        -24.478         84.701      -999.2500          9.890          9.801         10.475         12.833         14.704         17.924     -999.25000     -999.25000        0.26054     -999.25000      -999.2500       -999.250
         7289.5       -999.250       -999.250       -999.250       -999.250       -999.250        -24.435         80.859      -999.2500         11.261         10.944         11.592         14.258         16.306         19.872     -999.25000     -999.25000        0.23356     -999.25000      -999.2500       -999.250
         7290.0       -999.250       -999.250       -999.250       -999.250       -999.250        -24.315         77.424      -999.2500         13.757         13.087         13.772         16.976         19.326         23.524     -999.25000     -999.25000        0.20944     -999.25000      -999.2500       -999.250
         7290.5       -999.250       -999.250       -999.250       -999.250       -999.250        -24.363         74.760      -999.2500         16.924         15.742         16.427         20.289         22.936         27.863     -999.25000     -999.25000        0.19073     -999.25000      -999.2500       -999.250
         7291.0       -999.250       -999.250       -999.250       -999.250       -999.250        -25.179         73.438      -999.2500         18.649         17.006         17.472         21.492         24.102         29.204     -999.25000     -999.25000        0.18145     -999.25000      -999.2500       -999.250
         7291.5       -999.250       -999.250       -999.250       -999.250       -999.250        -26.709         74.230      -999.2500         19.988         17.699         17.821         21.617         24.034         29.041     -999.25000     -999.25000        0.18701     -999.25000      -999.2500       -999.250
         7292.0       -999.250       -999.250       -999.250       -999.250       -999.250        -27.705         77.435      -999.2500         23.546         19.825         19.480         23.389         25.771         31.057     -999.25000     -999.25000        0.20951     -999.25000      -999.2500       -999.250
         7292.5       -999.250       -999.250       -999.250       -999.250       -999.250        -27.373         82.242      -999.2500         29.022         23.469         22.370         26.829         29.502         35.474     -999.25000     -999.25000        0.24328     -999.25000      -999.2500       -999.250
         7293.0       -999.250       -999.250       -999.250       -999.250       -999.250        -26.061         87.001      -999.2500         36.407         28.082         25.921         31.164         34.353         41.663     -999.25000     -999.25000        0.27669     -999.25000      -999.2500       -999.250
         7293.5       -999.250       -999.250       -999.250       -999.250       -999.250        -24.620         90.296      -999.2500         41.829         32.281         29.129         35.168         38.956         47.574     -999.25000     -999.25000        0.29983     -999.25000      -999.2500       -999.250
         7294.0       -999.250       -999.250       -999.250       -999.250       -999.250        -24.260         91.616      -999.2500         38.297         31.968         29.032         34.726         38.526         46.189     -999.25000     -999.25000        0.30910     -999.25000      -999.2500       -999.250
         7294.5       -999.250       -999.250       -999.250       -999.250       -999.250        -24.856         91.149      -999.2500         29.501         26.540         24.902         29.077         31.704         37.951     -999.25000     -999.25000        0.30582     -999.25000      -999.2500       -999.250
         7295.0       -999.250       -999.250       -999.250       -999.250       -999.250        -25.131         89.515      -999.2500         21.224         20.487         19.876         22.744         24.971         29.874     -999.25000     -999.25000        0.29434     -999.25000      -999.2500       -999.250
         7295.5       -999.250       -999.250       -999.250       -999.250       -999.250        -24.484         87.490      -999.2500         16.758         16.779         16.663         19.126         21.147         25.285     -999.25000     -999.25000        0.28012     -999.25000      -999.2500       -999.250
