###############################################
##         ENVERUS                           ##
##         ESS - Open Hole                   ##
##         PERMIAN / MIDLAND                 ##
##         Nov 03 2023  V4.0                 ##
##         42-235-34485-90-00                ##
###############################################
## Copyright 2017-2023  ENVERUS.  All Rights Reserved. 
## Confidential - Property of ENVERUS, use governed by terms and 
## conditions found within the existing Information Services Subscription Agreement 
## (as may be amended, the “ISSA”) between Customer and ENVERUS. 
## 
~VERSION INFORMATION
# MNEM.UNIT                               DATA : DESCRIPTION OF MNEMONIC
#-----.-----     ----------------------------- : -----------------------------
VERS.                                     2.00 : CWLS LOG ASCII STANDARD - VERSION 2.00
WRAP.                                       NO : MULTIPLE LINES PER DEPTH STEP
VEND.                                  ENVERUS : VENDOR
TYPE.                          ESS - OPEN HOLE : ENVERUS ESSENTIAL CURVES – ACCESSIBLE THROUGH ENVERUS PRISM(TM)
DOC.                                  51094636 : ENVERUS HEADER RAW DOCUMENT ID
#___________________________________________________________________________________________________ 
~WELL INFORMATION 
# FMikr3+JyUztgncWDJlJj4UAVtjFs/xFdFTkOn/rCNZKdsWfgftU4ooQRZEXdd26HCoruynA4NvJdeWU6aB/BQ== 
# MNEM.UNIT                                              DATA : DESCRIPTION OF MNEMONIC 
#-----.-----                    ----------------------------- : ----------------------------- 
CNTY.                                                   IRION : COUNTY 
STATE.                                                  TEXAS : STATE 
CNTRY.                                                    USA : COUNTRY 
API.                                             42-235-34485 : API (10 Digit) 
API_14.                                    42-235-34485-90-00 : API (14 Digits) 
API_14_std.                                 42-235-34485-9000 : API (14 Digits Standard) 
UWI.                                           42235344859000 : UNIQUE WELL ID 
WELL.                                    UNIVERSITY 40-13 #1H : WELL NAME
STRT.FT                                                 187.0 : START DEPTH
STOP.FT                                                7212.0 : STOP DEPTH
STEP.FT                                                   0.5 : STEP BETWEEN DEPTHS
NULL.                                                 -999.25 : NULL VALUE
PREV_UWI.                                        42-235-34485 : API WELLHOLE NUMBER 
COMP.                                     EOG RESOURCES, INC. : COMPANY NAME 
COUN.                                                   IRION : COUNTY 
DAT2.                                                   02000 : LOGGING DATE 2 
DAT3.                                                   02000 : LOGGING DATE 3 
DAT4.                                                   02000 : LOGGING DATE 4 
DATE.                                              2/-1/-2010 : LOGGING DATE 
DFT.                                                    FRESH : DRILLING FLUID TYPE 
DMF.                                                       KB : DRILLING MEASURED 
ENGI.                                              R. ATKISON : ENGINEER 1 NAME 
LOC.                                        660 FNL & 660 FEL : FIELD LOCATION 
FL1.                                        660 FNL & 660 FEL : FIELD LOCATION LINE 1 
FL2.                                        SECT.13, BLOCK 40 : FIELD LOCATION LINE 2 
FLD.                                            LIN  WOLFCAMP : FIELD NAME 
HDAT.                                                   02000 : DATUM 
LMF.                                                       KB : LOG MEASURED FROM 
LUL.                                                   ODESSA : LOGGING UNIT LOCATION 
MCSS.                                                    MEAS : MUD CAKE SAMPLE SOURCE 
MFSS.                                                    MEAS : MUD FILTRATE SAMPLE SOURCE 
MSS.                                                  MUD PIT : SOURCE OF MUD SAMPLE 
OS1.                                             CSNG-DSN-SDL : OTHER SERVICES LINE 1 
OS2.                                                 DLL-MSFL : OTHER SERVICES LINE 2 
PDAT.                                                      GL : PERMANENT DATUM 
R1.             ANNULAR HOLE VOLUME CALCULATED FOR 5.5 INCH CASING. : REMARKS LINE 1 
R2.             LOGGING SCALES AND INTERVALS AS PER CUSTOMER REQUEST. : REMARKS LINE 2 
R3.             GR/CSNG/DSNT/SDLT/WSTT/DLLT/MGRD RAN IN COMBINATION AS SHOWN : REMARKS LINE 3 
RANG.                                                     N/A : RANGE 
RDT2.                                                   02000 : CASING DATE 2 
RDT3.                                                   02000 : CASING DATE 3 
RDT4.                                                   02000 : CASING DATE 4 
RDT5.                                                   02000 : CASING DATE 5 
SECT.                                                     N/A : SECTION 
SON.                                                  7176848 : SERVICE/TICKET ORDER NUMBER 
PROV.                                                   TEXAS : STATE 
TOWN.                                                     N/A : TOWNSHIP 
WITN.                                              GREG PALKO : WITNESS 1 NAME
#___________________________________________________________________________________________________ 
~PARAMETER INFORMATION 
# MNEM.UNIT                                              DATA : DESCRIPTION OF MNEMONIC 
#-----.-----                    ----------------------------- : -----------------------------
#___________________________________________________________________________________________________ 
~CURVE INFORMATION 
# MNEM.UNIT           : CURVE DESCRIPTION 
#-----.-----          : ----------------------------- 
 DEPT.FT               : MEASURED DEPTH 
 DT__E.US/FT           : SONIC DELTA TRANSIT TIME (DTC - DELTA-T COMPRESSIONAL - WAVE SONIC) 
 DTS__E.US/FT          : SHEAR SONIC TRAVEL TIME (SINGLE DIPOLE SONIC - WAVE SONIC) 
 SPHI_LS__E.V/V        : SONIC POROSITY - LIMESTONE (SPHIDTC - SONIC POROSITY MTX=47.6 (DTC)) 
 TENS__E.LBS           : CABLE TENSION (TENSION) 
 #___________________________________________________________________________________________________ 
~A         DEPT          DT__E         DTS__E     SPHI_LS__E        TENS__E
# ...
         6123.0         91.268      154.02430        0.30880      4884.5601
         6123.5         87.846      149.48030        0.28460      4859.5273
         6124.0         83.318      142.66600        0.25260      4864.1860
         6124.5         79.540      136.20500        0.22590      4907.5161
         6125.0         77.776      132.00160        0.21340      4951.1948
         6125.5         77.758      130.23100        0.21330      5031.9883
         6126.0         78.674      130.62170        0.21980      4995.6074
         6126.5         80.408      133.16860        0.23200      4916.8115
         6127.0         82.421      135.81370        0.24630      4864.7954
         6127.5         83.512      138.35220        0.25400      4863.3745
         6128.0         83.784      140.04990        0.25590      4860.9717
         6128.5         83.771      140.81970        0.25580      4866.1602
         6129.0         84.397      141.45140        0.26020      4850.6724
         6129.5         85.777      143.10600        0.27000      4886.2739
         6130.0         86.911      145.49150        0.27800      4925.2725
         6130.5         88.153      146.44850        0.28680      4980.4126
         6131.0         89.114      146.62070        0.29360      4925.0918
         6131.5         88.268      146.29550        0.28760      4890.3579
         6132.0         86.042      145.30720        0.27190      4871.0903
         6132.5         84.326      143.92520        0.25970      4880.9268
         6133.0         83.464      143.31570        0.25360      4855.0039
         6133.5         83.808      143.59470        0.25610      4885.7441
         6134.0         85.389      144.04990        0.26730      4956.8916
         6134.5         86.474      144.73980        0.27490      4988.2300
         6135.0         86.848      146.40830        0.27760      5011.8291
         6135.5         87.581      147.43290        0.28280      4921.9331
         6136.0         88.899      148.49200        0.29210      4920.8379
         6136.5         90.184      149.67330        0.30120      4883.4990
         6137.0         90.783      149.76290        0.30540      4773.5786
         6137.5         91.308      149.20140        0.30910      4738.5298
         6138.0         91.865      149.76120        0.31300      4864.1299
         6138.5         91.522      151.22860        0.31060      4948.2280
         6139.0         90.429      151.40710        0.30290      4921.7417
         6139.5         89.242      149.98280        0.29450      4807.6245
         6140.0         88.113      148.08010        0.28650      4833.4692
         6140.5         86.685      146.37200        0.27640      4917.5781
         6141.0         84.994      144.97500        0.26450      4884.4805
         6141.5         84.091      143.07650        0.25810      4778.1812
         6142.0         84.459      142.12800        0.26070      4796.5127
         6142.5         85.441      142.91380        0.26760      4845.8779
         6143.0         85.808      142.54230        0.27020      4846.3628
         6143.5         85.468      143.31470        0.26780      4839.4810
         6144.0         85.509      144.60510        0.26810      4920.7026
         6144.5         86.105      144.69270        0.27230      5036.6924
         6145.0         86.726      145.88380        0.27670      4963.3560
         6145.5         87.268      146.57730        0.28050      4847.7275
         6146.0         87.743      146.64750        0.28390      4798.4536
         6146.5         87.519      146.94530        0.28230      4839.5601
         6147.0         86.152      146.80470        0.27260      4819.0522
         6147.5         84.693      145.93400        0.26230      4758.1357
         6148.0         83.950      144.64410        0.25710      4797.8896
         6148.5         84.027      143.69610        0.25760      4877.5879
         6149.0         84.393      143.07320        0.26020      4831.0542
         6149.5         84.215      142.79610        0.25890      4804.0034
         6150.0         83.847      141.33150        0.25630      4883.8481
         6150.5         82.943      139.75310        0.24990      4930.3706
         6151.0         81.468      138.16610        0.23950      4906.7944
         6151.5         80.419      136.14260        0.23210      4844.8174
         6152.0         80.422      134.52260        0.23210      4836.0747
         6152.5         81.605      134.28310        0.24050      4862.6519
         6153.0         82.348      135.05940        0.24570      4900.9614
         6153.5         82.608      136.36350        0.24760      4978.1001
         6154.0         83.448      137.96700        0.25350      5040.5503
         6154.5         83.446      139.04300        0.25350      4953.4961
         6155.0         82.699      139.83450        0.24820      4939.4062
         6155.5         82.363      140.44940        0.24580      4918.2891
         6156.0         82.376      141.49330        0.24590      4967.4058
         6156.5         84.146      143.22980        0.25850      4928.8369
         6157.0         87.105      145.01550        0.27940      4953.6548
         6157.5         88.558      147.24600        0.28970      5046.0220
         6158.0         88.656      147.37980        0.29040      5096.7280
         6158.5         87.242      146.67220        0.28040      5038.7114
         6159.0         85.714      146.26020        0.26950      5036.6250
         6159.5         85.323      145.54350        0.26680      5092.5430
         6160.0         85.351      144.27690        0.26700      5080.3940
         6160.5         85.451      143.39660        0.26770      5084.6138
         6161.0         86.342      143.61130        0.27400      5133.3018
         6161.5         87.733      144.60080        0.28380      5065.6948
         6162.0         88.617      146.02140        0.29010      4986.2559
         6162.5         89.343      147.96590        0.29520      4983.4468
         6163.0         90.226      150.06950        0.30150      5040.7871
         6163.5         90.946      151.76040        0.30650      5131.2139
         6164.0         91.444      152.27660        0.31010      5098.6694
         6164.5         91.544      151.99140        0.31080      5024.0015
         6165.0         90.590      151.62020        0.30400      4994.2085
         6165.5         88.926      150.35060        0.29230      5012.1562
         6166.0         88.107      148.38790        0.28650      5045.4800
         6166.5         88.129      147.00690        0.28660      5085.6514
         6167.0         87.949      146.62060        0.28540      5032.8340
         6167.5         87.720      146.69400        0.28370      4969.3125
         6168.0         88.123      147.53090        0.28660      4984.5527
         6168.5         89.075      148.28190        0.29330      5035.6885
         6169.0         89.237      148.18230        0.29450      5050.7368
         6169.5         88.444      148.07720        0.28890      4959.0913
         6170.0         87.760      148.95330        0.28400      4986.9209
         6170.5         87.191      148.78390        0.28000      5063.9355
         6171.0         86.551      146.79870        0.27550      5002.6470
         6171.5         85.814      144.48410        0.27030      4935.5371
         6172.0         84.185      141.75520        0.25870      4970.8350
         6172.5         81.487      137.70320        0.23970      5066.5303
         6173.0         79.120      134.45680        0.22290      5124.2197
         6173.5         77.449      133.03320        0.21110      5076.9648
         6174.0         77.252      133.06160        0.20970      5064.6011
         6174.5         79.817      134.76180        0.22780      5012.4165
         6175.0         83.631      137.72190        0.25480      5035.1016
         6175.5         86.444      141.23410        0.27470      4975.3364
