###############################################
##         ENVERUS                           ##
##         ESS - Open Hole                   ##
##         PERMIAN / MIDLAND                 ##
##         Nov 03 2023  V4.0                 ##
##         42-235-34485-90-00                ##
###############################################
## Copyright 2017-2023  ENVERUS.  All Rights Reserved. 
## Confidential - Property of ENVERUS, use governed by terms and 
## conditions found within the existing Information Services Subscription Agreement 
## (as may be amended, the “ISSA”) between Customer and ENVERUS. 
## 
~VERSION INFORMATION
# MNEM.UNIT                               DATA : DESCRIPTION OF MNEMONIC
#-----.-----     ----------------------------- : -----------------------------
VERS.                                     2.00 : CWLS LOG ASCII STANDARD - VERSION 2.00
WRAP.                                       NO : MULTIPLE LINES PER DEPTH STEP
VEND.                                  ENVERUS : VENDOR
TYPE.                          ESS - OPEN HOLE : ENVERUS ESSENTIAL CURVES – ACCESSIBLE THROUGH ENVERUS PRISM(TM)
DOC.                                  51094636 : ENVERUS HEADER RAW DOCUMENT ID
#___________________________________________________________________________________________________ 
~WELL INFORMATION 
# FMikr3+JyUztgncWDJlJj4UAVtjFs/xFdFTkOn/rCNZKdsWfgftU4ooQRZEXdd26HCoruynA4NvJdeWU6aB/BQ== 
# MNEM.UNIT                                              DATA : DESCRIPTION OF MNEMONIC 
#-----.-----                    ----------------------------- : ----------------------------- 
CNTY.                                                   IRION : COUNTY 
STATE.                                                  TEXAS : STATE 
CNTRY.                                                    USA : COUNTRY 
API.                                             42-235-34485 : API (10 Digit) 
API_14.                                    42-235-34485-90-00 : API (14 Digits) 
API_14_std.                                 42-235-34485-9000 : API (14 Digits Standard) 
UWI.                                           42235344859000 : UNIQUE WELL ID 
WELL.                                    UNIVERSITY 40-13 #1H : WELL NAME
STRT.FT                                                 187.0 : START DEPTH
STOP.FT                                                7212.0 : STOP DEPTH
STEP.FT                                                   0.5 : STEP BETWEEN DEPTHS
NULL.                                                 -999.25 : NULL VALUE
PREV_UWI.                                        42-235-34485 : API WELLHOLE NUMBER 
COMP.                                     EOG RESOURCES, INC. : COMPANY NAME 
COUN.                                                   IRION : COUNTY 
DAT2.                                                   02000 : LOGGING DATE 2 
DAT3.                                                   02000 : LOGGING DATE 3 
DAT4.                                                   02000 : LOGGING DATE 4 
DATE.                                              2/-1/-2010 : LOGGING DATE 
DFT.                                                    FRESH : DRILLING FLUID TYPE 
DMF.                                                       KB : DRILLING MEASURED 
ENGI.                                              R. ATKISON : ENGINEER 1 NAME 
LOC.                                        660 FNL & 660 FEL : FIELD LOCATION 
FL1.                                        660 FNL & 660 FEL : FIELD LOCATION LINE 1 
FL2.                                        SECT.13, BLOCK 40 : FIELD LOCATION LINE 2 
FLD.                                            LIN  WOLFCAMP : FIELD NAME 
HDAT.                                                   02000 : DATUM 
LMF.                                                       KB : LOG MEASURED FROM 
LUL.                                                   ODESSA : LOGGING UNIT LOCATION 
MCSS.                                                    MEAS : MUD CAKE SAMPLE SOURCE 
MFSS.                                                    MEAS : MUD FILTRATE SAMPLE SOURCE 
MSS.                                                  MUD PIT : SOURCE OF MUD SAMPLE 
OS1.                                             CSNG-DSN-SDL : OTHER SERVICES LINE 1 
OS2.                                                 DLL-MSFL : OTHER SERVICES LINE 2 
PDAT.                                                      GL : PERMANENT DATUM 
R1.             ANNULAR HOLE VOLUME CALCULATED FOR 5.5 INCH CASING. : REMARKS LINE 1 
R2.             LOGGING SCALES AND INTERVALS AS PER CUSTOMER REQUEST. : REMARKS LINE 2 
R3.             GR/CSNG/DSNT/SDLT/WSTT/DLLT/MGRD RAN IN COMBINATION AS SHOWN : REMARKS LINE 3 
RANG.                                                     N/A : RANGE 
RDT2.                                                   02000 : CASING DATE 2 
RDT3.                                                   02000 : CASING DATE 3 
RDT4.                                                   02000 : CASING DATE 4 
RDT5.                                                   02000 : CASING DATE 5 
SECT.                                                     N/A : SECTION 
SON.                                                  7176848 : SERVICE/TICKET ORDER NUMBER 
PROV.                                                   TEXAS : STATE 
TOWN.                                                     N/A : TOWNSHIP 
WITN.                                              GREG PALKO : WITNESS 1 NAME
#___________________________________________________________________________________________________ 
~PARAMETER INFORMATION 
# MNEM.UNIT                                              DATA : DESCRIPTION OF MNEMONIC 
#-----.-----                    ----------------------------- : -----------------------------
#___________________________________________________________________________________________________ 
~CURVE INFORMATION 
# MNEM.UNIT           : CURVE DESCRIPTION 
#-----.-----          : ----------------------------- 
 DEPT.FT               : MEASURED DEPTH 
 DT__E.US/FT           : SONIC DELTA TRANSIT TIME (DTC - DELTA-T COMPRESSIONAL - WAVE SONIC) 
 DTS__E.US/FT          : SHEAR SONIC TRAVEL TIME (SINGLE DIPOLE SONIC - WAVE SONIC) 
 SPHI_LS__E.V/V        : SONIC POROSITY - LIMESTONE (SPHIDTC - SONIC POROSITY MTX=47.6 (DTC)) 
 TENS__E.LBS           : CABLE TENSION (TENSION) 
 #___________________________________________________________________________________________________ 
~A         DEPT          DT__E         DTS__E     SPHI_LS__E        TENS__E
# ...
         5328.0         79.951      135.57450        0.22880      4660.4775
         5328.5         80.644      136.67630        0.23370      4730.7007
         5329.0         82.096      137.75260        0.24400      4665.1362
         5329.5         82.798      138.82580        0.24890      4565.4258
         5330.0         82.222      138.81450        0.24490      4587.9985
         5330.5         81.165      137.69060        0.23740      4638.6606
         5331.0         80.371      136.36620        0.23180      4669.2310
         5331.5         79.600      135.25490        0.22630      4682.9268
         5332.0         78.840      134.65550        0.22090      4714.2759
         5332.5         78.431      133.81210        0.21800      4721.9126
         5333.0         78.140      132.84750        0.21600      4784.0254
         5333.5         77.753      132.39820        0.21320      4744.3618
         5334.0         77.491      132.74910        0.21140      4643.3428
         5334.5         77.739      133.23300        0.21310      4552.0132
         5335.0         78.347      133.32900        0.21740      4613.1094
         5335.5         78.608      133.52800        0.21930      4724.7671
         5336.0         78.789      133.24530        0.22060      4749.5957
         5336.5         79.176      132.81270        0.22330      4743.6514
         5337.0         78.914      133.12720        0.22150      4692.9209
         5337.5         78.241      132.98770        0.21670      4664.6855
         5338.0         78.440      133.23300        0.21810      4678.0640
         5338.5         79.168      132.96080        0.22330      4726.5151
         5339.0         79.291      133.29920        0.22410      4697.3428
         5339.5         78.806      134.18370        0.22070      4662.2832
         5340.0         78.200      135.23020        0.21640      4610.7969
         5340.5         77.702      134.97190        0.21290      4649.0845
         5341.0         77.371      133.46010        0.21050      4768.8975
         5341.5         77.216      132.06580        0.20940      4793.2295
         5342.0         77.320      131.23400        0.21020      4703.6499
         5342.5         76.726      130.21570        0.20600      4718.9458
         5343.0         75.447      128.74800        0.19690      4757.2554
         5343.5         75.245      127.93420        0.19550      4719.0254
         5344.0         75.043      127.63740        0.19410      4660.2188
         5344.5         74.083      127.60870        0.18730      4645.2935
         5345.0         74.466      128.50780        0.19000      4688.7930
         5345.5         76.797      130.44940        0.20650      4800.0884
         5346.0         78.615      131.80650        0.21930      4892.8398
         5346.5         78.899      132.96680        0.22130      4786.1680
         5347.0         78.973      134.77300        0.22190      4741.5073
         5347.5         78.952      135.66090        0.22170      4763.9565
         5348.0         78.292      135.36580        0.21710      4775.5649
         5348.5         77.194      134.13210        0.20930      4631.4634
         5349.0         76.596      133.12500        0.20510      4639.6313
         5349.5         75.574      130.68440        0.19780      4748.7837
         5350.0         72.994      126.25600        0.17960      4731.1973
         5350.5         71.596      123.44590        0.16970      4684.4600
         5351.0         72.233      122.84510        0.17420      4699.6782
         5351.5         73.272      122.96000        0.18160      4707.7212
         5352.0         74.304      123.99990        0.18890      4659.7217
         5352.5         76.043      126.75710        0.20120      4708.5674
         5353.0         78.202      130.60150        0.21640      4772.4956
         5353.5         79.812      133.23190        0.22780      4628.1465
         5354.0         80.322      134.14510        0.23140      4564.1060
         5354.5         80.334      134.60150        0.23150      4714.6484
         5355.0         80.027      135.12060        0.22930      4799.0957
         5355.5         79.469      135.49770        0.22540      4647.7412
         5356.0         79.054      135.99570        0.22240      4556.9995
         5356.5         78.765      137.09130        0.22040      4754.8076
         5357.0         78.760      138.14300        0.22040      4765.9419
         5357.5         79.241      138.49430        0.22380      4656.1118
         5358.0         79.931      139.31800        0.22860      4622.7881
         5358.5         80.941      140.44760        0.23580      4693.0000
         5359.0         82.043      141.07710        0.24360      4606.3979
         5359.5         82.650      142.02880        0.24790      4597.3613
         5360.0         83.484      143.69170        0.25380      4744.2266
         5360.5         84.660      145.36090        0.26210      4751.7847
         5361.0         85.090      146.49650        0.26510      4614.9600
         5361.5         84.654      145.98740        0.26200      4597.5308
         5362.0         83.451      142.94800        0.25350      4818.7017
         5362.5         79.759      135.96530        0.22740      4911.6899
         5363.0         71.615      128.69280        0.16980      4795.7349
         5363.5         64.579      120.84560        0.12010      4717.2319
         5364.0         62.694      117.74930        0.10670      4748.4785
         5364.5         65.549      116.74060        0.12690      4755.7891
         5365.0         69.943      119.04200        0.15800      4738.7998
         5365.5         74.796      124.36720        0.19230      4769.8218
         5366.0         79.282      128.40570        0.22410      4722.8833
         5366.5         81.905      133.08980        0.24260      4635.9526
         5367.0         83.313      137.84440        0.25260      4794.8774
         5367.5         83.106      142.34920        0.25110      4940.9517
         5368.0         83.132      143.93680        0.25130      4879.3359
         5368.5         83.407      143.27690        0.25320      4707.1011
         5369.0         82.672      141.22210        0.24800      4654.6235
         5369.5         81.786      138.78020        0.24180      4698.5283
         5370.0         81.246      136.91600        0.23790      4732.5845
         5370.5         80.229      135.12800        0.23080      4762.3770
         5371.0         79.223      133.56620        0.22360      4745.8623
         5371.5         79.100      132.84030        0.22280      4718.9912
         5372.0         79.366      132.56810        0.22470      4773.9058
         5372.5         79.358      132.05120        0.22460      4927.2793
         5373.0         79.415      130.59610        0.22500      4932.2773
         5373.5         79.678      129.03090        0.22690      4779.0503
         5374.0         78.548      127.88410        0.21890      4738.6655
         5374.5         74.854      126.15420        0.19270      4739.0034
         5375.0         72.316      125.19130        0.17480      4697.1631
         5375.5         71.635      125.63890        0.17000      4699.5659
         5376.0         71.771      125.39380        0.17090      4665.4868
         5376.5         72.705      125.57280        0.17750      4709.7749
         5377.0         75.079      128.40820        0.19430      4805.4014
         5377.5         78.833      130.62200        0.22090      4812.6890
         5378.0         80.893      131.83480        0.23540      4627.6396
         5378.5         80.699      133.39450        0.23410      4629.5112
         5379.0         79.682      134.35440        0.22690      4677.7490
         5379.5         79.341      134.49220        0.22450      4655.8188
         5380.0         79.418      134.34470        0.22500      4603.4873
         5380.5         78.776      134.36380        0.22050      4732.2568
