###############################################
##         ENVERUS                           ##
##         ESS - Open Hole                   ##
##         PERMIAN / MIDLAND                 ##
##         Nov 04 2023  V4.0                 ##
##         42-383-38290-90-00                ##
###############################################
## Copyright 2017-2023  ENVERUS.  All Rights Reserved. 
## Confidential - Property of ENVERUS, use governed by terms and 
## conditions found within the existing Information Services Subscription Agreement 
## (as may be amended, the “ISSA”) between Customer and ENVERUS. 
## 
~VERSION INFORMATION
# MNEM.UNIT                               DATA : DESCRIPTION OF MNEMONIC
#-----.-----     ----------------------------- : -----------------------------
VERS.                                     2.00 : CWLS LOG ASCII STANDARD - VERSION 2.00
WRAP.                                       NO : MULTIPLE LINES PER DEPTH STEP
VEND.                                  ENVERUS : VENDOR
TYPE.                          ESS - OPEN HOLE : ENVERUS ESSENTIAL CURVES – ACCESSIBLE THROUGH ENVERUS PRISM(TM)
DOC.                                  51094660 : ENVERUS HEADER RAW DOCUMENT ID
#___________________________________________________________________________________________________ 
~WELL INFORMATION 
# m1FPRISIcKBcMzk40yd34Gtphn5JoOH7jww50mYGKLfe2DZfACMCifCPsuzsX4y0yEiREccSdbTgxIOvDda2cA== 
# MNEM.UNIT                                              DATA : DESCRIPTION OF MNEMONIC 
#-----.-----                    ----------------------------- : ----------------------------- 
CNTY.                                                  REAGAN : COUNTY 
STATE.                                                  TEXAS : STATE 
CNTRY.                                                    USA : COUNTRY 
API.                                             42-383-38290 : API (10 Digit) 
API_14.                                    42-383-38290-90-00 : API (14 Digits) 
API_14_std.                                 42-383-38290-9000 : API (14 Digits Standard) 
UWI.                                           42383382909000 : UNIQUE WELL ID 
WELL.                                    UNIVERSITY 43-14 #6H : WELL NAME
STRT.FT                                                 900.0 : START DEPTH
STOP.FT                                                7359.0 : STOP DEPTH
STEP.FT                                                   0.5 : STEP BETWEEN DEPTHS
NULL.                                                 -999.25 : NULL VALUE
COMP.                       DEVON ENERGY PRODUCTION CO., L.P. : COMPANY 
FLD.                                           LIN (WOLFCAMP) : FIELD 
LOC.                                       201 FSL & 1115 FWL : LOCATION 
SRVC.                                             BAKER ATLAS : SERVICE COMPANY 
DATE.                                             25-AUG-2013 : LOG DATE 
PREV_APII.                                     42383382900000 : API NUMBER 
PREV_UWI.                                      42383382900000 : UNIQUE WELL ID
#___________________________________________________________________________________________________ 
~PARAMETER INFORMATION 
# MNEM.UNIT                                              DATA : DESCRIPTION OF MNEMONIC 
#-----.-----                    ----------------------------- : ----------------------------- 
HIDE.                                  COMPENSATED Z-DENSILOG : HEADER IDENTIFER 
HID1.                                 COMPENSATED NEUTRON LOG : HEADER IDENTIFER 
HID2.                                      DIGITAL SPECTRALOG : HEADER IDENTIFER 
HID3.                                           GAMMA RAY LOG : HEADER IDENTIFER 
CLAB.                                                  COUNTY : COUNTY LABEL (COMMENTS) 
SLAB.                                                   STATE : STATE LABEL (COMMENTS) 
FILE.                                                 MD10587 : FILE NUMBER 
CMT2.                                             FINAL PRINT : COMMENT 2 
FL1.                                          SEC.14, BLK. 43 : FIELD LOCATION 1 
FL3.                                  UNIVERSITY LAND SURVEY. : FIELD LOCATION 3 
OS2.                                                  HDIL/GR : OTHER SERVICES LINE 2 
OS3.                                                  XMAC/GR : OTHER SERVICES LINE 3 
OS4.                                                      BHP : OTHER SERVICES LINE 4 
PDAT.                                                    G.L. : PERMANENT DATUM 
EPD.FT                                                   2678 : ELEVATION OF PERM. DATUM 
LMF.                                                     K.B. : LOG MEASURED FROM 
APD.FT                                                     25 : ABOVE PERMANENT DATUM 
DMF.                                            KELLY BUSHING : DRILLING MEASURED FROM 
EKB.FT                                                   2703 : ELEVATION OF KELLY BUSHING 
EDF.FT                                                   2702 : ELEVATION OF DERRICK FLOOR 
EGL.FT                                                   2678 : ELEVATION OF GROUND LEVEL 
RUN.                                                        1 : RUN NUMBER 
TRIP.                                                       1 : TRIP NUMBER 
SON.                                                   636509 : SERVICE ORDER NUMBER 
TDD.FT                                                   7363 : TOTAL DEPTH - DRILLER 
TDL.FT                                                   7363 : TOTAL DEPTH - LOGGER 
BLI.FT                                                   7273 : BOTTOM LOG INTERVAL 
TLI.FT                                                    924 : TOP LOG INTERVAL 
CSIZ.IN                                                 9.625 : CASING SIZE 
CBDR.FT                                                   927 : CASING BOTTOM - DRILLER 
CBLO.FT                                                   924 : CASING BOTTOM - LOGGER 
BS.IN                                                    8.75 : BIT SIZE 
DFT.                                            OIL BASED MUD : DRILLING FLUID TYPE 
DFD.LB/G                                                    9 : DRILLING FLUID DENSITY 
DFV.S                                                      20 : DRILLING FLUID VISCOSITY 
MSS.                                                      OBM : MUD SAMPLE SOURCE 
MFSS.                                                      -- : MUD FILTRATE SAMPLE SOURCE 
MCSS.                                                      -- : MUD CAKE SAMPLE SOURCE 
TSC.                                                  7 HOURS : TIME SINCE CIRCULATION 
MRT.DEGF                                                  152 : MAXIMUM RECORDED TEMPERATURE 
LUN.                                                  HL-6713 : LOGGING UNIT NUMBER 
LUL.                                              MIDLAND, TX : LOGGING UNIT LOCATION 
ENGI.                                               O. ROBLES : ENGINEERS NAME 
WITN.                                                W. LUTKE : WITNESS NAME 
TSTR.                                           ZDL/CN/DSL/GR : TITLE SERVICE MNEMONIC 
TSTG.                                                      NA : TITLE SERVICE MNEMONIC 
STUS.                                                   FINAL : STATUS 
LCNM.                                             BAKER ATLAS : LOGGING COMPANY NAME 
LCC.                                                      150 : LOGGING COMPANY CODE 
OPMD.                                                 OH.WIRE : OPERATION MODE 
PANA.                                               O. ROBLES : PROCESSING ANALYST 
PCON.                                             BAKER ATLAS : PROCESSING CONTRACTOR
#___________________________________________________________________________________________________ 
~CURVE INFORMATION 
# MNEM.UNIT           : CURVE DESCRIPTION 
#-----.-----          : ----------------------------- 
 DEPT.FT               : MEASURED DEPTH 
 CALI.IN               : CALIPER (CALX - CALIPER FROM X-AXIS OF XY CALIPER(S)) 
 GR.API                : GAMMA RAY (GAMMA RAY) 
 SGR.API               : SPECTRAL GAMMA RAY (KTH - STRIPPED POTASSIUM-THORIUM) 
 SGR_TH_PPM.PPM        : SPECTRAL GAMMA RAY - THORIUM IN PPM (TH - THORIUM CONCENTRATION) 
 SGR_U_PPM.PPM         : SPECTRAL GAMMA RAY - URANIUM IN PPM (U - URANIUM CONTENT) 
 SP.MV                 : SPONTANEOUS POTENTIAL (SPDH - SPONTANEOUS POTENTIAL PROCESSED IN COMMON REMOTE) 
 DT.US/FT              : SONIC DELTA TRANSIT TIME (DT24 - SLOWNESS OVER 24-INCH INTERVAL) 
 PE.B/E                : PHOTOELECTRIC EFFECT/FACTOR (PHOTO ELECTRIC CROSS-SECTION) 
 RESS_10M2.OHMM        : RESISTIVITY SHALLOW - 10 IN 2 FT VERTICAL (M2R1 - VERTICAL 2-FOOT RESOLUTION MATCHED RESISTIVITY 10-INCH DOI) 
 RESS_20M2.OHMM        : RESISTIVITY SHALLOW - 20 IN 2 FT VERTICAL (M2R2 - VERTICAL 2-FOOT RESOLUTION MATCHED RESISTIVITY 20-INCH DOI) 
 RESM_30M2.OHMM        : RESISTIVITY MEDIUM - 30 IN 2 FT VERTICAL (M2R3 - VERTICAL 2-FOOT RESOLUTION MATCHED RESISTIVITY 30-INCH DOI) 
 RESD_60M2.OHMM        : RESISTIVITY DEEP - 60 IN 2 FT VERTICAL (M2R6 - VERTICAL 2-FOOT RESOLUTION MATCHED RESISTIVITY 60-INCH DOI) 
 RESD_90M2.OHMM        : RESISTIVITY DEEP - 90 IN 2 FT VERTICAL (M2R9 - VERTICAL 2-FOOT RESOLUTION MATCHED RESISTIVITY 90-INCH DOI) 
 RESD_120M2.OHMM       : RESISTIVITY DEEP - 120 IN 2 FT VERTICAL (M2RX - VERTICAL 2-FOOT RESOLUTION MATCHED RESISTIVITY 120-INCH DOI) 
 DPHI.V/V              : DENSITY POROSITY (PORZC - CORRECTED POROSITY) 
 NPHI.V/V              : NEUTRON POROSITY (CNC - BOREHOLE SIZE CORRECTED COMPENSATED NEUTRON POROSITY) 
 SPHI.V/V              : SONIC POROSITY (PORA - ACOUSTIC POROSITY) 
 DRHO.G/CC             : DENSITY CORRECTION (ZCOR - DENSITY CORRECTION) 
 RHOB.G/CC             : BULK DENSITY (ZDNC - BOREHOLE SIZE/MUD WEIGHT CORRECTED DENSITY) 
 TEMP.DEGF             : TEMPERATURE (WTBH - TEMPERATURE OF BOREHOLE) 
 #___________________________________________________________________________________________________ 
~A         DEPT           CALI             GR            SGR     SGR_TH_PPM      SGR_U_PPM             SP             DT             PE      RESS_10M2      RESS_20M2      RESM_30M2      RESD_60M2      RESD_90M2     RESD_120M2           DPHI           NPHI           SPHI           DRHO           RHOB           TEMP
# ...
         1329.0          9.318         78.892         59.484          8.241          2.776       -189.858         75.293         3.4030          6.844          7.072          7.304          7.762          7.965          8.573        0.11533        0.19276        0.19447        0.01500         2.5130         97.458
         1329.5          9.322         80.936         60.338          8.477          2.866       -189.480         75.055         3.3980          6.134          6.284          6.490          6.936          7.123          7.709        0.10981        0.19695        0.19280        0.02400         2.5220         97.361
         1330.0          9.301         77.867         58.838          8.741          2.725       -189.884         73.781         3.5170          6.566          6.640          6.846          7.365          7.568          8.238        0.10359        0.16372        0.18386        0.03000         2.5330         97.435
         1330.5          9.258         69.227         55.653          8.525          2.082       -190.792         71.175         3.4540          8.894          8.855          9.089          9.857         10.132         11.093        0.11302        0.10474        0.16555        0.02600         2.5170         97.865
         1331.0          9.240         58.201         50.053          6.832          1.342       -191.283         67.871         3.2410         15.275         14.944         15.324         16.789         17.236         18.976        0.13684        0.06289        0.14235        0.01500         2.4760         97.891
         1331.5          9.242         49.046         43.525          4.457          0.947       -191.341         64.874         3.1320         29.007         27.249         27.915         31.242         31.982         35.397        0.16170        0.04368        0.12131        0.00600         2.4330         97.034
         1332.0          9.255         44.023         39.814          3.036          0.741       -190.883         62.794         3.1670         48.885         44.381         45.439         51.689         52.968         58.951        0.18023        0.03801        0.10670        0.00000         2.4020         96.184
         1332.5          9.277         42.113         38.161          2.512          0.696       -189.817         61.659         3.2110         60.812         57.643         59.813         65.555         67.956         76.013        0.19155        0.03679        0.09873       -0.00200         2.3820         96.331
         1333.0          9.287         41.324         36.835          2.236          0.774       -189.012         61.191         3.1730         62.123         63.881         66.822         72.281         75.447         84.731        0.19676        0.03524        0.09545       -0.00200         2.3740         97.091
         1333.5          9.285         41.291         35.773          2.028          0.917       -189.062         61.178         3.0970         59.309         66.634         71.442         76.235         79.957         90.024        0.19663        0.03498        0.09535       -0.00100         2.3740         97.120
         1334.0          9.282         42.252         35.162          1.981          1.122       -189.405         61.547         3.0590         54.002         65.130         71.012         74.962         78.991         88.969        0.19449        0.03797        0.09794        0.00100         2.3770         96.562
         1334.5          9.272         43.526         35.010          2.225          1.308       -189.498         62.240         3.0620         48.708         60.730         66.264         69.601         73.630         82.747        0.19387        0.04104        0.10281        0.00200         2.3780         96.195
         1335.0          9.250         44.860         35.860          2.750          1.372       -189.489         63.136         3.0790         44.194         55.408         59.855         62.746         66.584         74.507        0.19450        0.04167        0.10910        0.00100         2.3770         96.031
         1335.5          9.229         45.867         37.380          3.400          1.312       -189.550         63.978         3.1050         40.109         49.884         53.283         55.991         59.324         66.003        0.19381        0.04262        0.11502        0.00000         2.3790         96.043
         1336.0          9.220         46.193         38.641          4.020          1.210       -190.018         64.566         3.0780         36.966         45.385         48.100         50.618         53.490         59.122        0.19095        0.04586        0.11915        0.00200         2.3830         96.490
         1336.5          9.227         46.708         39.930          4.604          1.124       -190.645         64.854         2.9760         34.994         42.441         44.793         47.093         49.654         54.500        0.18509        0.04977        0.12117        0.00500         2.3930         97.015
         1337.0          9.247         48.307         41.714          5.118          1.104       -190.766         65.013         2.9220         32.620         39.201         41.296         43.350         45.619         49.706        0.17564        0.05484        0.12228        0.00900         2.4100         97.296
         1337.5          9.270         51.135         43.538          5.456          1.244       -190.530         65.342         3.0190         28.360         33.870         35.710         37.443         39.383         42.606        0.16499        0.06326        0.12459        0.01100         2.4280         97.381
         1338.0          9.290         55.451         45.347          5.717          1.590       -190.298         66.085         3.1660         23.649         28.048         29.649         31.029         32.639         35.077        0.15725        0.07444        0.12981        0.01000         2.4410         97.339
         1338.5          9.299         61.561         48.047          6.203          2.049       -189.999         67.358         3.1920         19.808         23.193         24.571         25.659         26.972         28.822        0.15320        0.08580        0.13875        0.00700         2.4480         97.126
         1339.0          9.306         68.217         51.301          6.704          2.497       -189.899         69.152         3.1220         16.155         18.547         19.669         20.514         21.533         22.905        0.14935        0.10036        0.15135        0.00800         2.4550         96.803
         1339.5          9.317         73.555         53.964          6.885          2.857       -190.267         71.411         3.1070         12.299         13.794         14.613         15.237         15.959         16.919        0.14363        0.12282        0.16721        0.01100         2.4640         96.666
         1340.0          9.328         78.054         56.902          7.048          3.072       -190.252         73.900         3.1880          9.076          9.928         10.472         10.917         11.405         12.063        0.13637        0.15196        0.18469        0.01400         2.4770         96.770
         1340.5          9.318         83.296         62.127          7.603          3.021       -189.519         76.103         3.2820          7.140          7.639          8.010          8.354          8.719          9.214        0.12728        0.17699        0.20016        0.01500         2.4920         96.905
         1341.0          9.289         88.027         67.276          8.134          2.876       -188.893         77.308         3.3130          6.338          6.656          6.929          7.239          7.545          7.977        0.11865        0.18493        0.20862        0.01300         2.5070         96.940
         1341.5          9.263         87.714         68.432          8.445          2.693       -189.292         76.930         3.2700          6.395          6.599          6.811          7.140          7.430          7.865        0.11540        0.17054        0.20597        0.01000         2.5130         96.856
