###############################################
##         ENVERUS                           ##
##         ESS - Open Hole                   ##
##         PERMIAN / MIDLAND                 ##
##         Nov 04 2023  V4.0                 ##
##         42-383-38290-90-00                ##
###############################################
## Copyright 2017-2023  ENVERUS.  All Rights Reserved. 
## Confidential - Property of ENVERUS, use governed by terms and 
## conditions found within the existing Information Services Subscription Agreement 
## (as may be amended, the “ISSA”) between Customer and ENVERUS. 
## 
~VERSION INFORMATION
# MNEM.UNIT                               DATA : DESCRIPTION OF MNEMONIC
#-----.-----     ----------------------------- : -----------------------------
VERS.                                     2.00 : CWLS LOG ASCII STANDARD - VERSION 2.00
WRAP.                                       NO : MULTIPLE LINES PER DEPTH STEP
VEND.                                  ENVERUS : VENDOR
TYPE.                          ESS - OPEN HOLE : ENVERUS ESSENTIAL CURVES – ACCESSIBLE THROUGH ENVERUS PRISM(TM)
DOC.                                  51094660 : ENVERUS HEADER RAW DOCUMENT ID
#___________________________________________________________________________________________________ 
~WELL INFORMATION 
# m1FPRISIcKBcMzk40yd34Gtphn5JoOH7jww50mYGKLfe2DZfACMCifCPsuzsX4y0yEiREccSdbTgxIOvDda2cA== 
# MNEM.UNIT                                              DATA : DESCRIPTION OF MNEMONIC 
#-----.-----                    ----------------------------- : ----------------------------- 
CNTY.                                                  REAGAN : COUNTY 
STATE.                                                  TEXAS : STATE 
CNTRY.                                                    USA : COUNTRY 
API.                                             42-383-38290 : API (10 Digit) 
API_14.                                    42-383-38290-90-00 : API (14 Digits) 
API_14_std.                                 42-383-38290-9000 : API (14 Digits Standard) 
UWI.                                           42383382909000 : UNIQUE WELL ID 
WELL.                                    UNIVERSITY 43-14 #6H : WELL NAME
STRT.FT                                                 900.0 : START DEPTH
STOP.FT                                                7359.0 : STOP DEPTH
STEP.FT                                                   0.5 : STEP BETWEEN DEPTHS
NULL.                                                 -999.25 : NULL VALUE
COMP.                       DEVON ENERGY PRODUCTION CO., L.P. : COMPANY 
FLD.                                           LIN (WOLFCAMP) : FIELD 
LOC.                                       201 FSL & 1115 FWL : LOCATION 
SRVC.                                             BAKER ATLAS : SERVICE COMPANY 
DATE.                                             25-AUG-2013 : LOG DATE 
PREV_APII.                                     42383382900000 : API NUMBER 
PREV_UWI.                                      42383382900000 : UNIQUE WELL ID
#___________________________________________________________________________________________________ 
~PARAMETER INFORMATION 
# MNEM.UNIT                                              DATA : DESCRIPTION OF MNEMONIC 
#-----.-----                    ----------------------------- : ----------------------------- 
HIDE.                                  COMPENSATED Z-DENSILOG : HEADER IDENTIFER 
HID1.                                 COMPENSATED NEUTRON LOG : HEADER IDENTIFER 
HID2.                                      DIGITAL SPECTRALOG : HEADER IDENTIFER 
HID3.                                           GAMMA RAY LOG : HEADER IDENTIFER 
CLAB.                                                  COUNTY : COUNTY LABEL (COMMENTS) 
SLAB.                                                   STATE : STATE LABEL (COMMENTS) 
FILE.                                                 MD10587 : FILE NUMBER 
CMT2.                                             FINAL PRINT : COMMENT 2 
FL1.                                          SEC.14, BLK. 43 : FIELD LOCATION 1 
FL3.                                  UNIVERSITY LAND SURVEY. : FIELD LOCATION 3 
OS2.                                                  HDIL/GR : OTHER SERVICES LINE 2 
OS3.                                                  XMAC/GR : OTHER SERVICES LINE 3 
OS4.                                                      BHP : OTHER SERVICES LINE 4 
PDAT.                                                    G.L. : PERMANENT DATUM 
EPD.FT                                                   2678 : ELEVATION OF PERM. DATUM 
LMF.                                                     K.B. : LOG MEASURED FROM 
APD.FT                                                     25 : ABOVE PERMANENT DATUM 
DMF.                                            KELLY BUSHING : DRILLING MEASURED FROM 
EKB.FT                                                   2703 : ELEVATION OF KELLY BUSHING 
EDF.FT                                                   2702 : ELEVATION OF DERRICK FLOOR 
EGL.FT                                                   2678 : ELEVATION OF GROUND LEVEL 
RUN.                                                        1 : RUN NUMBER 
TRIP.                                                       1 : TRIP NUMBER 
SON.                                                   636509 : SERVICE ORDER NUMBER 
TDD.FT                                                   7363 : TOTAL DEPTH - DRILLER 
TDL.FT                                                   7363 : TOTAL DEPTH - LOGGER 
BLI.FT                                                   7273 : BOTTOM LOG INTERVAL 
TLI.FT                                                    924 : TOP LOG INTERVAL 
CSIZ.IN                                                 9.625 : CASING SIZE 
CBDR.FT                                                   927 : CASING BOTTOM - DRILLER 
CBLO.FT                                                   924 : CASING BOTTOM - LOGGER 
BS.IN                                                    8.75 : BIT SIZE 
DFT.                                            OIL BASED MUD : DRILLING FLUID TYPE 
DFD.LB/G                                                    9 : DRILLING FLUID DENSITY 
DFV.S                                                      20 : DRILLING FLUID VISCOSITY 
MSS.                                                      OBM : MUD SAMPLE SOURCE 
MFSS.                                                      -- : MUD FILTRATE SAMPLE SOURCE 
MCSS.                                                      -- : MUD CAKE SAMPLE SOURCE 
TSC.                                                  7 HOURS : TIME SINCE CIRCULATION 
MRT.DEGF                                                  152 : MAXIMUM RECORDED TEMPERATURE 
LUN.                                                  HL-6713 : LOGGING UNIT NUMBER 
LUL.                                              MIDLAND, TX : LOGGING UNIT LOCATION 
ENGI.                                               O. ROBLES : ENGINEERS NAME 
WITN.                                                W. LUTKE : WITNESS NAME 
TSTR.                                           ZDL/CN/DSL/GR : TITLE SERVICE MNEMONIC 
TSTG.                                                      NA : TITLE SERVICE MNEMONIC 
STUS.                                                   FINAL : STATUS 
LCNM.                                             BAKER ATLAS : LOGGING COMPANY NAME 
LCC.                                                      150 : LOGGING COMPANY CODE 
OPMD.                                                 OH.WIRE : OPERATION MODE 
PANA.                                               O. ROBLES : PROCESSING ANALYST 
PCON.                                             BAKER ATLAS : PROCESSING CONTRACTOR
#___________________________________________________________________________________________________ 
~CURVE INFORMATION 
# MNEM.UNIT           : CURVE DESCRIPTION 
#-----.-----          : ----------------------------- 
 DEPT.FT               : MEASURED DEPTH 
 CALI.IN               : CALIPER (CALX - CALIPER FROM X-AXIS OF XY CALIPER(S)) 
 GR.API                : GAMMA RAY (GAMMA RAY) 
 SGR.API               : SPECTRAL GAMMA RAY (KTH - STRIPPED POTASSIUM-THORIUM) 
 SGR_TH_PPM.PPM        : SPECTRAL GAMMA RAY - THORIUM IN PPM (TH - THORIUM CONCENTRATION) 
 SGR_U_PPM.PPM         : SPECTRAL GAMMA RAY - URANIUM IN PPM (U - URANIUM CONTENT) 
 SP.MV                 : SPONTANEOUS POTENTIAL (SPDH - SPONTANEOUS POTENTIAL PROCESSED IN COMMON REMOTE) 
 DT.US/FT              : SONIC DELTA TRANSIT TIME (DT24 - SLOWNESS OVER 24-INCH INTERVAL) 
 PE.B/E                : PHOTOELECTRIC EFFECT/FACTOR (PHOTO ELECTRIC CROSS-SECTION) 
 RESS_10M2.OHMM        : RESISTIVITY SHALLOW - 10 IN 2 FT VERTICAL (M2R1 - VERTICAL 2-FOOT RESOLUTION MATCHED RESISTIVITY 10-INCH DOI) 
 RESS_20M2.OHMM        : RESISTIVITY SHALLOW - 20 IN 2 FT VERTICAL (M2R2 - VERTICAL 2-FOOT RESOLUTION MATCHED RESISTIVITY 20-INCH DOI) 
 RESM_30M2.OHMM        : RESISTIVITY MEDIUM - 30 IN 2 FT VERTICAL (M2R3 - VERTICAL 2-FOOT RESOLUTION MATCHED RESISTIVITY 30-INCH DOI) 
 RESD_60M2.OHMM        : RESISTIVITY DEEP - 60 IN 2 FT VERTICAL (M2R6 - VERTICAL 2-FOOT RESOLUTION MATCHED RESISTIVITY 60-INCH DOI) 
 RESD_90M2.OHMM        : RESISTIVITY DEEP - 90 IN 2 FT VERTICAL (M2R9 - VERTICAL 2-FOOT RESOLUTION MATCHED RESISTIVITY 90-INCH DOI) 
 RESD_120M2.OHMM       : RESISTIVITY DEEP - 120 IN 2 FT VERTICAL (M2RX - VERTICAL 2-FOOT RESOLUTION MATCHED RESISTIVITY 120-INCH DOI) 
 DPHI.V/V              : DENSITY POROSITY (PORZC - CORRECTED POROSITY) 
 NPHI.V/V              : NEUTRON POROSITY (CNC - BOREHOLE SIZE CORRECTED COMPENSATED NEUTRON POROSITY) 
 SPHI.V/V              : SONIC POROSITY (PORA - ACOUSTIC POROSITY) 
 DRHO.G/CC             : DENSITY CORRECTION (ZCOR - DENSITY CORRECTION) 
 RHOB.G/CC             : BULK DENSITY (ZDNC - BOREHOLE SIZE/MUD WEIGHT CORRECTED DENSITY) 
 TEMP.DEGF             : TEMPERATURE (WTBH - TEMPERATURE OF BOREHOLE) 
 #___________________________________________________________________________________________________ 
~A         DEPT           CALI             GR            SGR     SGR_TH_PPM      SGR_U_PPM             SP             DT             PE      RESS_10M2      RESS_20M2      RESM_30M2      RESD_60M2      RESD_90M2     RESD_120M2           DPHI           NPHI           SPHI           DRHO           RHOB           TEMP
# ...
         1745.0          9.161         48.317         34.562          3.416          2.250       -127.299         81.141         2.7990          1.781          1.791          1.766          1.724          1.734          1.733        0.16374        0.19752        0.23554       -0.02000         2.4300        101.109
         1745.5          9.166         49.925         36.477          3.731          2.159       -129.538         81.850         2.9040          1.641          1.646          1.624          1.589          1.598          1.600        0.16652        0.19481        0.24052       -0.01100         2.4250        101.273
         1746.0          9.179         54.354         41.878          4.907          1.966       -131.952         82.954         2.9760          1.489          1.486          1.467          1.439          1.448          1.452        0.17613        0.20916        0.24828       -0.00400         2.4090        100.663
         1746.5          9.192         61.426         50.597          7.159          1.737       -134.265         84.008         2.9380          1.361          1.350          1.334          1.311          1.320          1.326        0.19058        0.23107        0.25567        0.00100         2.3840         99.818
         1747.0          9.190         69.478         59.687          9.414          1.616       -136.664         84.664         2.8550          1.304          1.285          1.268          1.249          1.259          1.266        0.20231        0.24559        0.26028        0.00600         2.3640         99.719
         1747.5          9.178         75.834         65.914         10.807          1.643       -138.025         85.092         2.7990          1.329          1.295          1.276          1.259          1.269          1.279        0.20911        0.25100        0.26329        0.00800         2.3520         99.773
         1748.0          9.173         80.523         69.830         11.453          1.739       -137.242         85.741         2.7210          1.412          1.356          1.331          1.315          1.327          1.340        0.21037        0.25183        0.26785        0.00900         2.3500         99.550
         1748.5          9.181         83.982         72.134         11.507          1.883       -135.647         86.601         2.6030          1.514          1.426          1.394          1.380          1.393          1.410        0.20630        0.25113        0.27388        0.01000         2.3570         99.608
         1749.0          9.193         85.743         72.364         11.226          2.092       -135.243         87.190         2.5140          1.607          1.484          1.444          1.434          1.446          1.468        0.20114        0.25474        0.27802        0.00900         2.3660         99.774
         1749.5          9.205         86.022         70.668         10.803          2.373       -135.891         87.036         2.4780          1.700          1.543          1.495          1.489          1.502          1.528        0.19896        0.25859        0.27694        0.00500         2.3700         99.411
         1750.0          9.212         85.800         68.077         10.156          2.712       -135.995         86.119         2.4840          1.833          1.642          1.587          1.586          1.598          1.630        0.19468        0.25204        0.27050        0.00300         2.3770         99.128
         1750.5          9.217         86.002         65.607          9.422          3.080       -135.292         84.643         2.5470          2.049          1.820          1.755          1.761          1.774          1.815        0.18167        0.23944        0.26013        0.00700         2.3990         99.204
         1751.0          9.221         86.578         63.410          8.830          3.455       -135.086         82.848         2.6460          2.339          2.076          2.000          2.018          2.032          2.088        0.16278        0.23313        0.24753        0.01300         2.4320         99.435
         1751.5          9.218         86.589         61.236          8.367          3.770       -135.835         81.081         2.7140          2.631          2.360          2.282          2.317          2.332          2.406        0.14461        0.23497        0.23512        0.01600         2.4630         99.671
         1752.0          9.201         86.090         59.754          7.995          3.940       -136.270         79.678         2.7760          2.890          2.648          2.580          2.638          2.657          2.750        0.12684        0.23325        0.22526        0.01600         2.4930         99.838
         1752.5          9.193         86.468         59.981          7.776          3.962       -135.917         78.710         2.8880          3.105          2.930          2.889          2.974          2.998          3.115        0.10969        0.22803        0.21847        0.01600         2.5220         99.817
         1753.0          9.212         87.676         61.829          7.849          3.854       -135.747         78.133         3.0220          3.247          3.162          3.162          3.273          3.303          3.440        0.10126        0.22922        0.21442        0.01200         2.5370         99.647
         1753.5          9.236         89.028         65.245          8.329          3.576       -135.933         78.141         3.1390          3.312          3.315          3.357          3.492          3.533          3.693        0.10345        0.23601        0.21448        0.00500         2.5330         99.505
         1754.0          9.246         91.215         70.408          9.234          3.171       -135.792         78.928         3.2770          3.280          3.338          3.415          3.571          3.626          3.805        0.10740        0.24370        0.22000        0.00100         2.5260         99.640
         1754.5          9.255         93.953         75.705         10.381          2.811       -134.417         80.095         3.4510          3.157          3.232          3.329          3.498          3.564          3.754        0.10752        0.25657        0.22819        0.00100         2.5260         99.945
         1755.0          9.259         95.049         78.160         11.307          2.642       -131.476         80.860         3.5850          3.095          3.162          3.267          3.448          3.527          3.727        0.10403        0.27352        0.23357        0.00200         2.5320        100.025
         1755.5          9.257         95.312         78.431         11.873          2.667       -128.637         81.091         3.5620          3.166          3.216          3.324          3.520          3.616          3.834        0.09925        0.28377        0.23519        0.00600         2.5400         99.577
         1756.0          9.261         97.056         78.628         12.069          2.860       -128.217         81.382         3.4380          3.234          3.259          3.363          3.575          3.686          3.921        0.09931        0.28397        0.23724        0.00800         2.5400         98.996
         1756.5          9.256         99.207         78.199         11.869          3.154       -129.958         82.264         3.4370          3.263          3.259          3.355          3.577          3.702          3.950        0.10591        0.28540        0.24343        0.00800         2.5290         99.040
         1757.0          9.220         98.892         75.422         11.412          3.472       -132.016         83.334         3.6610          3.435          3.399          3.491          3.734          3.877          4.148        0.11158        0.28760        0.25094        0.01000         2.5190         99.462
         1757.5          9.173         96.403         70.751         10.738          3.791       -132.975         83.794         3.9440          3.788          3.728          3.828          4.104          4.269          4.577        0.11460        0.27557        0.25417        0.01700         2.5140         99.403
