###############################################
##         ENVERUS                           ##
##         ESS - Open Hole                   ##
##         PERMIAN / MIDLAND                 ##
##         Nov 04 2023  V4.0                 ##
##         42-383-38290-90-00                ##
###############################################
## Copyright 2017-2023  ENVERUS.  All Rights Reserved. 
## Confidential - Property of ENVERUS, use governed by terms and 
## conditions found within the existing Information Services Subscription Agreement 
## (as may be amended, the “ISSA”) between Customer and ENVERUS. 
## 
~VERSION INFORMATION
# MNEM.UNIT                               DATA : DESCRIPTION OF MNEMONIC
#-----.-----     ----------------------------- : -----------------------------
VERS.                                     2.00 : CWLS LOG ASCII STANDARD - VERSION 2.00
WRAP.                                       NO : MULTIPLE LINES PER DEPTH STEP
VEND.                                  ENVERUS : VENDOR
TYPE.                          ESS - OPEN HOLE : ENVERUS ESSENTIAL CURVES – ACCESSIBLE THROUGH ENVERUS PRISM(TM)
DOC.                                  51094660 : ENVERUS HEADER RAW DOCUMENT ID
#___________________________________________________________________________________________________ 
~WELL INFORMATION 
# m1FPRISIcKBcMzk40yd34Gtphn5JoOH7jww50mYGKLfe2DZfACMCifCPsuzsX4y0yEiREccSdbTgxIOvDda2cA== 
# MNEM.UNIT                                              DATA : DESCRIPTION OF MNEMONIC 
#-----.-----                    ----------------------------- : ----------------------------- 
CNTY.                                                  REAGAN : COUNTY 
STATE.                                                  TEXAS : STATE 
CNTRY.                                                    USA : COUNTRY 
API.                                             42-383-38290 : API (10 Digit) 
API_14.                                    42-383-38290-90-00 : API (14 Digits) 
API_14_std.                                 42-383-38290-9000 : API (14 Digits Standard) 
UWI.                                           42383382909000 : UNIQUE WELL ID 
WELL.                                    UNIVERSITY 43-14 #6H : WELL NAME
STRT.FT                                                 900.0 : START DEPTH
STOP.FT                                                7359.0 : STOP DEPTH
STEP.FT                                                   0.5 : STEP BETWEEN DEPTHS
NULL.                                                 -999.25 : NULL VALUE
COMP.                       DEVON ENERGY PRODUCTION CO., L.P. : COMPANY 
FLD.                                           LIN (WOLFCAMP) : FIELD 
LOC.                                       201 FSL & 1115 FWL : LOCATION 
SRVC.                                             BAKER ATLAS : SERVICE COMPANY 
DATE.                                             25-AUG-2013 : LOG DATE 
PREV_APII.                                     42383382900000 : API NUMBER 
PREV_UWI.                                      42383382900000 : UNIQUE WELL ID
#___________________________________________________________________________________________________ 
~PARAMETER INFORMATION 
# MNEM.UNIT                                              DATA : DESCRIPTION OF MNEMONIC 
#-----.-----                    ----------------------------- : ----------------------------- 
HIDE.                                  COMPENSATED Z-DENSILOG : HEADER IDENTIFER 
HID1.                                 COMPENSATED NEUTRON LOG : HEADER IDENTIFER 
HID2.                                      DIGITAL SPECTRALOG : HEADER IDENTIFER 
HID3.                                           GAMMA RAY LOG : HEADER IDENTIFER 
CLAB.                                                  COUNTY : COUNTY LABEL (COMMENTS) 
SLAB.                                                   STATE : STATE LABEL (COMMENTS) 
FILE.                                                 MD10587 : FILE NUMBER 
CMT2.                                             FINAL PRINT : COMMENT 2 
FL1.                                          SEC.14, BLK. 43 : FIELD LOCATION 1 
FL3.                                  UNIVERSITY LAND SURVEY. : FIELD LOCATION 3 
OS2.                                                  HDIL/GR : OTHER SERVICES LINE 2 
OS3.                                                  XMAC/GR : OTHER SERVICES LINE 3 
OS4.                                                      BHP : OTHER SERVICES LINE 4 
PDAT.                                                    G.L. : PERMANENT DATUM 
EPD.FT                                                   2678 : ELEVATION OF PERM. DATUM 
LMF.                                                     K.B. : LOG MEASURED FROM 
APD.FT                                                     25 : ABOVE PERMANENT DATUM 
DMF.                                            KELLY BUSHING : DRILLING MEASURED FROM 
EKB.FT                                                   2703 : ELEVATION OF KELLY BUSHING 
EDF.FT                                                   2702 : ELEVATION OF DERRICK FLOOR 
EGL.FT                                                   2678 : ELEVATION OF GROUND LEVEL 
RUN.                                                        1 : RUN NUMBER 
TRIP.                                                       1 : TRIP NUMBER 
SON.                                                   636509 : SERVICE ORDER NUMBER 
TDD.FT                                                   7363 : TOTAL DEPTH - DRILLER 
TDL.FT                                                   7363 : TOTAL DEPTH - LOGGER 
BLI.FT                                                   7273 : BOTTOM LOG INTERVAL 
TLI.FT                                                    924 : TOP LOG INTERVAL 
CSIZ.IN                                                 9.625 : CASING SIZE 
CBDR.FT                                                   927 : CASING BOTTOM - DRILLER 
CBLO.FT                                                   924 : CASING BOTTOM - LOGGER 
BS.IN                                                    8.75 : BIT SIZE 
DFT.                                            OIL BASED MUD : DRILLING FLUID TYPE 
DFD.LB/G                                                    9 : DRILLING FLUID DENSITY 
DFV.S                                                      20 : DRILLING FLUID VISCOSITY 
MSS.                                                      OBM : MUD SAMPLE SOURCE 
MFSS.                                                      -- : MUD FILTRATE SAMPLE SOURCE 
MCSS.                                                      -- : MUD CAKE SAMPLE SOURCE 
TSC.                                                  7 HOURS : TIME SINCE CIRCULATION 
MRT.DEGF                                                  152 : MAXIMUM RECORDED TEMPERATURE 
LUN.                                                  HL-6713 : LOGGING UNIT NUMBER 
LUL.                                              MIDLAND, TX : LOGGING UNIT LOCATION 
ENGI.                                               O. ROBLES : ENGINEERS NAME 
WITN.                                                W. LUTKE : WITNESS NAME 
TSTR.                                           ZDL/CN/DSL/GR : TITLE SERVICE MNEMONIC 
TSTG.                                                      NA : TITLE SERVICE MNEMONIC 
STUS.                                                   FINAL : STATUS 
LCNM.                                             BAKER ATLAS : LOGGING COMPANY NAME 
LCC.                                                      150 : LOGGING COMPANY CODE 
OPMD.                                                 OH.WIRE : OPERATION MODE 
PANA.                                               O. ROBLES : PROCESSING ANALYST 
PCON.                                             BAKER ATLAS : PROCESSING CONTRACTOR
#___________________________________________________________________________________________________ 
~CURVE INFORMATION 
# MNEM.UNIT           : CURVE DESCRIPTION 
#-----.-----          : ----------------------------- 
 DEPT.FT               : MEASURED DEPTH 
 CALI.IN               : CALIPER (CALX - CALIPER FROM X-AXIS OF XY CALIPER(S)) 
 GR.API                : GAMMA RAY (GAMMA RAY) 
 SGR.API               : SPECTRAL GAMMA RAY (KTH - STRIPPED POTASSIUM-THORIUM) 
 SGR_TH_PPM.PPM        : SPECTRAL GAMMA RAY - THORIUM IN PPM (TH - THORIUM CONCENTRATION) 
 SGR_U_PPM.PPM         : SPECTRAL GAMMA RAY - URANIUM IN PPM (U - URANIUM CONTENT) 
 SP.MV                 : SPONTANEOUS POTENTIAL (SPDH - SPONTANEOUS POTENTIAL PROCESSED IN COMMON REMOTE) 
 DT.US/FT              : SONIC DELTA TRANSIT TIME (DT24 - SLOWNESS OVER 24-INCH INTERVAL) 
 PE.B/E                : PHOTOELECTRIC EFFECT/FACTOR (PHOTO ELECTRIC CROSS-SECTION) 
 RESS_10M2.OHMM        : RESISTIVITY SHALLOW - 10 IN 2 FT VERTICAL (M2R1 - VERTICAL 2-FOOT RESOLUTION MATCHED RESISTIVITY 10-INCH DOI) 
 RESS_20M2.OHMM        : RESISTIVITY SHALLOW - 20 IN 2 FT VERTICAL (M2R2 - VERTICAL 2-FOOT RESOLUTION MATCHED RESISTIVITY 20-INCH DOI) 
 RESM_30M2.OHMM        : RESISTIVITY MEDIUM - 30 IN 2 FT VERTICAL (M2R3 - VERTICAL 2-FOOT RESOLUTION MATCHED RESISTIVITY 30-INCH DOI) 
 RESD_60M2.OHMM        : RESISTIVITY DEEP - 60 IN 2 FT VERTICAL (M2R6 - VERTICAL 2-FOOT RESOLUTION MATCHED RESISTIVITY 60-INCH DOI) 
 RESD_90M2.OHMM        : RESISTIVITY DEEP - 90 IN 2 FT VERTICAL (M2R9 - VERTICAL 2-FOOT RESOLUTION MATCHED RESISTIVITY 90-INCH DOI) 
 RESD_120M2.OHMM       : RESISTIVITY DEEP - 120 IN 2 FT VERTICAL (M2RX - VERTICAL 2-FOOT RESOLUTION MATCHED RESISTIVITY 120-INCH DOI) 
 DPHI.V/V              : DENSITY POROSITY (PORZC - CORRECTED POROSITY) 
 NPHI.V/V              : NEUTRON POROSITY (CNC - BOREHOLE SIZE CORRECTED COMPENSATED NEUTRON POROSITY) 
 SPHI.V/V              : SONIC POROSITY (PORA - ACOUSTIC POROSITY) 
 DRHO.G/CC             : DENSITY CORRECTION (ZCOR - DENSITY CORRECTION) 
 RHOB.G/CC             : BULK DENSITY (ZDNC - BOREHOLE SIZE/MUD WEIGHT CORRECTED DENSITY) 
 TEMP.DEGF             : TEMPERATURE (WTBH - TEMPERATURE OF BOREHOLE) 
 #___________________________________________________________________________________________________ 
~A         DEPT           CALI             GR            SGR     SGR_TH_PPM      SGR_U_PPM             SP             DT             PE      RESS_10M2      RESS_20M2      RESM_30M2      RESD_60M2      RESD_90M2     RESD_120M2           DPHI           NPHI           SPHI           DRHO           RHOB           TEMP
# ...
         6009.0          8.908        100.089         62.623          7.541          5.127        -73.674         70.892         3.0870         15.785         13.177         12.502         12.506         12.637         12.779        0.05714        0.19273        0.16357        0.01500         2.6120        142.931
         6009.5          8.909         72.926         47.741          6.901          3.706        -78.097         65.621         3.4080         24.248         19.079         17.729         17.658         17.939         18.204        0.01069        0.16207        0.12655        0.02100         2.6920        143.115
         6010.0          8.912         51.788         36.625          6.553          2.631        -82.409         63.095         3.6610         25.220         20.867         19.519         19.350         19.747         20.054       -0.01655        0.13609        0.10882        0.02000         2.7380        143.048
         6010.5          8.912         53.477         38.514          6.738          2.558        -83.873         64.785         3.6130         15.236         14.475         14.109         14.019         14.279         14.421        0.00109        0.13113        0.12068        0.00500         2.7080        142.464
         6011.0          8.908         75.753         56.910          8.186          2.822        -82.179         69.746         3.4080          8.820          8.779          8.723          8.680          8.790          8.857        0.04297        0.15089        0.15552       -0.00800         2.6370        142.327
         6011.5          8.913        101.866         74.975          9.796          3.834        -80.044         75.548         3.2120          6.761          6.797          6.775          6.741          6.838          6.888        0.07956        0.18845        0.19627       -0.01100         2.5740        143.033
         6012.0          8.914        118.100         81.377         10.780          5.223        -77.607         80.132         3.0660          6.500          6.511          6.493          6.463          6.560          6.604        0.09921        0.22232        0.22845       -0.00700         2.5400        143.583
         6012.5          8.902        123.736         83.220         11.517          5.808        -75.054         82.913         2.9980          6.988          6.930          6.889          6.855          6.966          7.006        0.10481        0.23385        0.24798       -0.00100         2.5310        143.368
         6013.0          8.887        125.339         84.598         12.032          5.865        -75.434         84.366         3.0240          7.460          7.277          7.198          7.170          7.298          7.338        0.10293        0.23538        0.25819        0.00500         2.5340        142.504
         6013.5          8.884        126.776         86.341         12.322          5.804        -79.051         84.859         3.1130          7.511          7.215          7.116          7.099          7.229          7.263        0.10027        0.24275        0.26165        0.00900         2.5390        141.592
         6014.0          8.887        128.012         88.126         12.451          5.685        -81.933         84.408         3.1970          7.166          6.838          6.737          6.731          6.848          6.875        0.09966        0.25028        0.25848        0.01200         2.5400        141.409
         6014.5          8.893        126.535         88.115         12.280          5.495        -83.556         83.020         3.2160          6.637          6.327          6.236          6.238          6.335          6.355        0.09904        0.24983        0.24874        0.01400         2.5410        142.132
         6015.0          8.899        121.344         85.494         11.787          5.223        -85.859         81.219         3.1650          6.281          5.973          5.890          5.897          5.976          5.991        0.09541        0.24473        0.23609        0.01600         2.5470        142.869
         6015.5          8.905        115.365         82.223         11.493          4.958        -87.760         79.963         3.1090          6.532          6.151          6.060          6.067          6.146          6.154        0.09164        0.23634        0.22727        0.01800         2.5530        142.834
         6016.0          8.905        112.141         80.538         11.555          4.819        -86.527         79.998         3.0960          7.616          7.060          6.921          6.925          7.015          7.026        0.09345        0.22794        0.22751        0.01500         2.5500        142.114
         6016.5          8.894        112.999         81.957         11.812          4.712        -82.323         81.265         3.1280          8.648          7.916          7.718          7.716          7.814          7.825        0.09995        0.22454        0.23641        0.01000         2.5390        141.521
         6017.0          8.885        118.111         87.558         12.362          4.510        -78.347         82.885         3.1430          8.272          7.598          7.407          7.397          7.475          7.482        0.10543        0.23164        0.24779        0.00700         2.5300        141.552
         6017.5          8.884        123.694         93.550         12.981          4.331        -78.199         83.928         3.0570          7.615          7.044          6.888          6.873          6.932          6.937        0.10855        0.25228        0.25511        0.00600         2.5240        142.159
         6018.0          8.884        124.938         94.936         13.337          4.312        -81.936         84.151         2.9150          7.958          7.373          7.224          7.201          7.259          7.263        0.11062        0.27335        0.25668        0.00800         2.5210        142.820
         6018.5          8.882        123.535         93.411         13.362          4.395        -84.941         84.053         2.8160          8.747          8.132          7.975          7.940          8.003          8.007        0.11025        0.27422        0.25599        0.01100         2.5210        142.934
         6019.0          8.889        124.058         92.100         13.070          4.647        -83.868         84.184         2.8090          8.486          7.989          7.852          7.810          7.866          7.869        0.10390        0.26740        0.25691        0.01500         2.5320        142.577
         6019.5          8.906        127.689         90.430         12.269          5.299        -79.882         84.584         2.8920          7.677          7.309          7.195          7.152          7.196          7.198        0.09485        0.26993        0.25972        0.01900         2.5480        142.402
         6020.0          8.915        132.995         88.759         11.144          6.114        -75.955         84.902         2.9810          7.591          7.252          7.132          7.083          7.124          7.125        0.09392        0.27710        0.26195        0.01800         2.5490        142.773
         6020.5          8.905        136.500         87.777         10.384          6.601        -72.144         84.823         3.0130          8.140          7.760          7.610          7.548          7.591          7.592        0.10141        0.27552        0.26140        0.01200         2.5370        143.174
         6021.0          8.894        134.161         84.696         10.176          6.796        -68.361         84.321         3.0430          8.606          8.175          7.997          7.923          7.968          7.968        0.10579        0.26294        0.25787        0.00900         2.5290        142.977
         6021.5          8.901        127.724         79.484         10.396          6.874        -66.545         83.595         3.0730          8.999          8.520          8.324          8.241          8.289          8.288        0.10370        0.24757        0.25278        0.00900         2.5330        142.558
