###############################################
##         ENVERUS                           ##
##         ESS - Open Hole                   ##
##         PERMIAN / MIDLAND                 ##
##         Nov 04 2023  V4.0                 ##
##         42-383-38290-90-00                ##
###############################################
## Copyright 2017-2023  ENVERUS.  All Rights Reserved. 
## Confidential - Property of ENVERUS, use governed by terms and 
## conditions found within the existing Information Services Subscription Agreement 
## (as may be amended, the “ISSA”) between Customer and ENVERUS. 
## 
~VERSION INFORMATION
# MNEM.UNIT                               DATA : DESCRIPTION OF MNEMONIC
#-----.-----     ----------------------------- : -----------------------------
VERS.                                     2.00 : CWLS LOG ASCII STANDARD - VERSION 2.00
WRAP.                                       NO : MULTIPLE LINES PER DEPTH STEP
VEND.                                  ENVERUS : VENDOR
TYPE.                          ESS - OPEN HOLE : ENVERUS ESSENTIAL CURVES – ACCESSIBLE THROUGH ENVERUS PRISM(TM)
DOC.                                  51094660 : ENVERUS HEADER RAW DOCUMENT ID
#___________________________________________________________________________________________________ 
~WELL INFORMATION 
# m1FPRISIcKBcMzk40yd34Gtphn5JoOH7jww50mYGKLfe2DZfACMCifCPsuzsX4y0yEiREccSdbTgxIOvDda2cA== 
# MNEM.UNIT                                              DATA : DESCRIPTION OF MNEMONIC 
#-----.-----                    ----------------------------- : ----------------------------- 
CNTY.                                                  REAGAN : COUNTY 
STATE.                                                  TEXAS : STATE 
CNTRY.                                                    USA : COUNTRY 
API.                                             42-383-38290 : API (10 Digit) 
API_14.                                    42-383-38290-90-00 : API (14 Digits) 
API_14_std.                                 42-383-38290-9000 : API (14 Digits Standard) 
UWI.                                           42383382909000 : UNIQUE WELL ID 
WELL.                                    UNIVERSITY 43-14 #6H : WELL NAME
STRT.FT                                                 900.0 : START DEPTH
STOP.FT                                                7359.0 : STOP DEPTH
STEP.FT                                                   0.5 : STEP BETWEEN DEPTHS
NULL.                                                 -999.25 : NULL VALUE
COMP.                       DEVON ENERGY PRODUCTION CO., L.P. : COMPANY 
FLD.                                           LIN (WOLFCAMP) : FIELD 
LOC.                                       201 FSL & 1115 FWL : LOCATION 
SRVC.                                             BAKER ATLAS : SERVICE COMPANY 
DATE.                                             25-AUG-2013 : LOG DATE 
PREV_APII.                                     42383382900000 : API NUMBER 
PREV_UWI.                                      42383382900000 : UNIQUE WELL ID
#___________________________________________________________________________________________________ 
~PARAMETER INFORMATION 
# MNEM.UNIT                                              DATA : DESCRIPTION OF MNEMONIC 
#-----.-----                    ----------------------------- : ----------------------------- 
HIDE.                                  COMPENSATED Z-DENSILOG : HEADER IDENTIFER 
HID1.                                 COMPENSATED NEUTRON LOG : HEADER IDENTIFER 
HID2.                                      DIGITAL SPECTRALOG : HEADER IDENTIFER 
HID3.                                           GAMMA RAY LOG : HEADER IDENTIFER 
CLAB.                                                  COUNTY : COUNTY LABEL (COMMENTS) 
SLAB.                                                   STATE : STATE LABEL (COMMENTS) 
FILE.                                                 MD10587 : FILE NUMBER 
CMT2.                                             FINAL PRINT : COMMENT 2 
FL1.                                          SEC.14, BLK. 43 : FIELD LOCATION 1 
FL3.                                  UNIVERSITY LAND SURVEY. : FIELD LOCATION 3 
OS2.                                                  HDIL/GR : OTHER SERVICES LINE 2 
OS3.                                                  XMAC/GR : OTHER SERVICES LINE 3 
OS4.                                                      BHP : OTHER SERVICES LINE 4 
PDAT.                                                    G.L. : PERMANENT DATUM 
EPD.FT                                                   2678 : ELEVATION OF PERM. DATUM 
LMF.                                                     K.B. : LOG MEASURED FROM 
APD.FT                                                     25 : ABOVE PERMANENT DATUM 
DMF.                                            KELLY BUSHING : DRILLING MEASURED FROM 
EKB.FT                                                   2703 : ELEVATION OF KELLY BUSHING 
EDF.FT                                                   2702 : ELEVATION OF DERRICK FLOOR 
EGL.FT                                                   2678 : ELEVATION OF GROUND LEVEL 
RUN.                                                        1 : RUN NUMBER 
TRIP.                                                       1 : TRIP NUMBER 
SON.                                                   636509 : SERVICE ORDER NUMBER 
TDD.FT                                                   7363 : TOTAL DEPTH - DRILLER 
TDL.FT                                                   7363 : TOTAL DEPTH - LOGGER 
BLI.FT                                                   7273 : BOTTOM LOG INTERVAL 
TLI.FT                                                    924 : TOP LOG INTERVAL 
CSIZ.IN                                                 9.625 : CASING SIZE 
CBDR.FT                                                   927 : CASING BOTTOM - DRILLER 
CBLO.FT                                                   924 : CASING BOTTOM - LOGGER 
BS.IN                                                    8.75 : BIT SIZE 
DFT.                                            OIL BASED MUD : DRILLING FLUID TYPE 
DFD.LB/G                                                    9 : DRILLING FLUID DENSITY 
DFV.S                                                      20 : DRILLING FLUID VISCOSITY 
MSS.                                                      OBM : MUD SAMPLE SOURCE 
MFSS.                                                      -- : MUD FILTRATE SAMPLE SOURCE 
MCSS.                                                      -- : MUD CAKE SAMPLE SOURCE 
TSC.                                                  7 HOURS : TIME SINCE CIRCULATION 
MRT.DEGF                                                  152 : MAXIMUM RECORDED TEMPERATURE 
LUN.                                                  HL-6713 : LOGGING UNIT NUMBER 
LUL.                                              MIDLAND, TX : LOGGING UNIT LOCATION 
ENGI.                                               O. ROBLES : ENGINEERS NAME 
WITN.                                                W. LUTKE : WITNESS NAME 
TSTR.                                           ZDL/CN/DSL/GR : TITLE SERVICE MNEMONIC 
TSTG.                                                      NA : TITLE SERVICE MNEMONIC 
STUS.                                                   FINAL : STATUS 
LCNM.                                             BAKER ATLAS : LOGGING COMPANY NAME 
LCC.                                                      150 : LOGGING COMPANY CODE 
OPMD.                                                 OH.WIRE : OPERATION MODE 
PANA.                                               O. ROBLES : PROCESSING ANALYST 
PCON.                                             BAKER ATLAS : PROCESSING CONTRACTOR
#___________________________________________________________________________________________________ 
~CURVE INFORMATION 
# MNEM.UNIT           : CURVE DESCRIPTION 
#-----.-----          : ----------------------------- 
 DEPT.FT               : MEASURED DEPTH 
 CALI.IN               : CALIPER (CALX - CALIPER FROM X-AXIS OF XY CALIPER(S)) 
 GR.API                : GAMMA RAY (GAMMA RAY) 
 SGR.API               : SPECTRAL GAMMA RAY (KTH - STRIPPED POTASSIUM-THORIUM) 
 SGR_TH_PPM.PPM        : SPECTRAL GAMMA RAY - THORIUM IN PPM (TH - THORIUM CONCENTRATION) 
 SGR_U_PPM.PPM         : SPECTRAL GAMMA RAY - URANIUM IN PPM (U - URANIUM CONTENT) 
 SP.MV                 : SPONTANEOUS POTENTIAL (SPDH - SPONTANEOUS POTENTIAL PROCESSED IN COMMON REMOTE) 
 DT.US/FT              : SONIC DELTA TRANSIT TIME (DT24 - SLOWNESS OVER 24-INCH INTERVAL) 
 PE.B/E                : PHOTOELECTRIC EFFECT/FACTOR (PHOTO ELECTRIC CROSS-SECTION) 
 RESS_10M2.OHMM        : RESISTIVITY SHALLOW - 10 IN 2 FT VERTICAL (M2R1 - VERTICAL 2-FOOT RESOLUTION MATCHED RESISTIVITY 10-INCH DOI) 
 RESS_20M2.OHMM        : RESISTIVITY SHALLOW - 20 IN 2 FT VERTICAL (M2R2 - VERTICAL 2-FOOT RESOLUTION MATCHED RESISTIVITY 20-INCH DOI) 
 RESM_30M2.OHMM        : RESISTIVITY MEDIUM - 30 IN 2 FT VERTICAL (M2R3 - VERTICAL 2-FOOT RESOLUTION MATCHED RESISTIVITY 30-INCH DOI) 
 RESD_60M2.OHMM        : RESISTIVITY DEEP - 60 IN 2 FT VERTICAL (M2R6 - VERTICAL 2-FOOT RESOLUTION MATCHED RESISTIVITY 60-INCH DOI) 
 RESD_90M2.OHMM        : RESISTIVITY DEEP - 90 IN 2 FT VERTICAL (M2R9 - VERTICAL 2-FOOT RESOLUTION MATCHED RESISTIVITY 90-INCH DOI) 
 RESD_120M2.OHMM       : RESISTIVITY DEEP - 120 IN 2 FT VERTICAL (M2RX - VERTICAL 2-FOOT RESOLUTION MATCHED RESISTIVITY 120-INCH DOI) 
 DPHI.V/V              : DENSITY POROSITY (PORZC - CORRECTED POROSITY) 
 NPHI.V/V              : NEUTRON POROSITY (CNC - BOREHOLE SIZE CORRECTED COMPENSATED NEUTRON POROSITY) 
 SPHI.V/V              : SONIC POROSITY (PORA - ACOUSTIC POROSITY) 
 DRHO.G/CC             : DENSITY CORRECTION (ZCOR - DENSITY CORRECTION) 
 RHOB.G/CC             : BULK DENSITY (ZDNC - BOREHOLE SIZE/MUD WEIGHT CORRECTED DENSITY) 
 TEMP.DEGF             : TEMPERATURE (WTBH - TEMPERATURE OF BOREHOLE) 
 #___________________________________________________________________________________________________ 
~A         DEPT           CALI             GR            SGR     SGR_TH_PPM      SGR_U_PPM             SP             DT             PE      RESS_10M2      RESS_20M2      RESM_30M2      RESD_60M2      RESD_90M2     RESD_120M2           DPHI           NPHI           SPHI           DRHO           RHOB           TEMP
          900.0          9.110         47.945         35.103          5.073          1.996       -114.542         58.153        11.7420       -999.250       -999.250       -999.250       -999.250       -999.250       -999.250        0.35135        0.47948        0.07411       -0.51500         2.1090         94.579
          900.5          9.110         48.630         34.752          4.931          2.112       -113.171         57.904        11.6010        396.321        144.574        132.689        134.713        144.574        144.574        0.34654        0.45724        0.07236       -0.51000         2.1170         95.431
          901.0          9.110         48.328         33.036          4.709          2.315       -112.117         57.760        11.3470        399.880        146.275        132.394        136.273        146.275        146.590        0.34014        0.43568        0.07135       -0.50500         2.1280         96.222
          901.5          9.108         47.598         31.173          4.514          2.487       -112.603         57.903        11.2660        406.684        144.801        128.630        134.269        144.801        146.504        0.33792        0.43589        0.07236       -0.50400         2.1320         96.613
          902.0          9.107         47.488         30.497          4.423          2.535       -115.930         58.219        11.3210        418.551        139.887        122.132        128.084        139.887        143.077        0.34229        0.45251        0.07457       -0.50900         2.1250         96.563
          902.5          9.108         47.097         30.497          4.369          2.455       -119.270         58.605        11.2900        431.547        134.305        114.245        120.566        133.607        138.667        0.34758        0.45432        0.07728       -0.51500         2.1160         96.056
          903.0          9.105         46.211         31.109          4.237          2.251       -119.583         58.961        11.2200        444.634        131.199        108.120        114.052        128.609        135.953        0.34795        0.42842        0.07978       -0.51600         2.1150         95.601
          903.5          9.097         45.470         32.583          4.058          1.944       -116.951         59.052        11.3140        448.753        127.944        104.284        110.762        126.563        137.369        0.34463        0.41361        0.08042       -0.51400         2.1210         95.674
          904.0          9.093         44.611         33.938          3.879          1.640       -114.926         58.608        11.5240        445.450        126.755        102.797        109.558        126.755        142.011        0.34369        0.42147        0.07730       -0.51100         2.1220         95.686
          904.5          9.100         43.185         34.104          3.733          1.439       -115.655         57.620        11.6450        431.538        129.401        103.117        111.128        129.401        150.623        0.34790        0.43813        0.07037       -0.51200         2.1150         95.338
          905.0          9.116         42.384         33.908          3.685          1.368       -116.101         56.502        11.6090        411.571        137.685        107.525        117.418        137.685        169.573        0.35239        0.46160        0.06251       -0.51300         2.1070         95.369
          905.5          9.135         42.651         33.990          3.784          1.388       -112.134         55.777        11.4780        388.941        151.174        114.731        128.565        151.174        198.445        0.35182        0.48842        0.05743       -0.51400         2.1080         95.806
          906.0          9.146         43.045         33.787          4.044          1.470       -107.093         55.685        11.2940        370.668        166.788        122.118        140.625        166.788        235.183        0.34744        0.48498        0.05678       -0.51300         2.1160         95.884
          906.5          9.140         43.719         33.649          4.375          1.579       -107.329         56.080        11.0980        352.941        175.630        124.117        148.135        175.630        265.390        0.34415        0.46085        0.05955       -0.51100         2.1210         95.691
          907.0          9.129         45.238         34.233          4.658          1.680       -104.757         56.727        11.0060        338.956        173.322        119.762        146.209        173.322        284.680        0.34404        0.43969        0.06410       -0.50900         2.1220         95.475
          907.5          9.129         46.397         34.723          4.857          1.758        -98.726         57.423        11.0700        321.818        167.076        114.214        143.218        167.716        296.180        0.34685        0.43065        0.06898       -0.50800         2.1170         95.370
          908.0          9.133         46.524         34.652          4.970          1.812        -99.715         57.983        11.1620        304.520        170.949        115.583        149.055        173.353        319.107        0.35152        0.43514        0.07291       -0.50800         2.1090         95.623
          908.5          9.124         47.223         35.312          5.075          1.829       -107.271         58.228        11.1870        285.383        188.598        125.487        170.563        192.116        349.480        0.35572        0.44746        0.07464       -0.50900         2.1020         96.116
          909.0          9.114         48.696         36.734          5.228          1.821       -109.931         58.073        11.2120        285.519        225.394        143.443        207.954        225.084        399.065        0.35718        0.44866        0.07355       -0.50900         2.0990         96.261
          909.5          9.116         49.220         37.534          5.433          1.796       -109.352         57.717        11.2370        285.510        270.054        163.902        258.822        259.728        438.514        0.35864        0.43579        0.07104       -0.50900         2.0970         95.873
          910.0          9.120         48.753         37.577          5.690          1.760       -109.388         57.628        11.1360        298.097        298.097        175.251        289.474        279.411        454.960        0.36494        0.40993        0.07042       -0.51300         2.0860         95.298
          910.5          9.110         48.782         37.752          5.936          1.748       -109.754         58.110        10.9660        290.648        290.648        169.216        282.944        274.085        428.929        0.37509        0.39865        0.07381       -0.51900         2.0690         95.017
          911.0          9.109         50.008         38.204          5.939          1.818       -109.702         58.915        10.8540        285.450        258.784        151.660        242.526        251.827        385.224        0.38261        0.42669        0.07946       -0.52300         2.0560         95.350
          911.5          9.121         51.060         38.056          5.620          1.934       -109.151         59.467        10.8190        285.501        223.516        132.822        206.646        225.198        333.991        0.38242        0.46995        0.08334       -0.52400         2.0560         95.963
          912.0          9.131         50.749         36.854          5.121          2.025       -108.796         59.391        10.8320        285.532        202.480        121.395        184.087        207.829        308.423        0.37546        0.47047        0.08280       -0.52100         2.0680         96.301
          912.5          9.131         50.050         35.259          4.443          2.103       -108.796         58.929        10.8680        285.494        195.545        116.978        180.941        202.414        308.317        0.36855        0.44460        0.07955       -0.51700         2.0800         96.173
