###############################################
##         ENVERUS                           ##
##         ESS - Open Hole                   ##
##         PERMIAN / MIDLAND                 ##
##         Nov 04 2023  V4.0                 ##
##         42-383-38290-90-00                ##
###############################################
## Copyright 2017-2023  ENVERUS.  All Rights Reserved. 
## Confidential - Property of ENVERUS, use governed by terms and 
## conditions found within the existing Information Services Subscription Agreement 
## (as may be amended, the “ISSA”) between Customer and ENVERUS. 
## 
~VERSION INFORMATION
# MNEM.UNIT                               DATA : DESCRIPTION OF MNEMONIC
#-----.-----     ----------------------------- : -----------------------------
VERS.                                     2.00 : CWLS LOG ASCII STANDARD - VERSION 2.00
WRAP.                                       NO : MULTIPLE LINES PER DEPTH STEP
VEND.                                  ENVERUS : VENDOR
TYPE.                          ESS - OPEN HOLE : ENVERUS ESSENTIAL CURVES – ACCESSIBLE THROUGH ENVERUS PRISM(TM)
DOC.                                  51094660 : ENVERUS HEADER RAW DOCUMENT ID
#___________________________________________________________________________________________________ 
~WELL INFORMATION 
# m1FPRISIcKBcMzk40yd34Gtphn5JoOH7jww50mYGKLfe2DZfACMCifCPsuzsX4y0yEiREccSdbTgxIOvDda2cA== 
# MNEM.UNIT                                              DATA : DESCRIPTION OF MNEMONIC 
#-----.-----                    ----------------------------- : ----------------------------- 
CNTY.                                                  REAGAN : COUNTY 
STATE.                                                  TEXAS : STATE 
CNTRY.                                                    USA : COUNTRY 
API.                                             42-383-38290 : API (10 Digit) 
API_14.                                    42-383-38290-90-00 : API (14 Digits) 
API_14_std.                                 42-383-38290-9000 : API (14 Digits Standard) 
UWI.                                           42383382909000 : UNIQUE WELL ID 
WELL.                                    UNIVERSITY 43-14 #6H : WELL NAME
STRT.FT                                                 900.0 : START DEPTH
STOP.FT                                                7359.0 : STOP DEPTH
STEP.FT                                                   0.5 : STEP BETWEEN DEPTHS
NULL.                                                 -999.25 : NULL VALUE
COMP.                       DEVON ENERGY PRODUCTION CO., L.P. : COMPANY 
FLD.                                           LIN (WOLFCAMP) : FIELD 
LOC.                                       201 FSL & 1115 FWL : LOCATION 
SRVC.                                             BAKER ATLAS : SERVICE COMPANY 
DATE.                                             25-AUG-2013 : LOG DATE 
PREV_APII.                                     42383382900000 : API NUMBER 
PREV_UWI.                                      42383382900000 : UNIQUE WELL ID
#___________________________________________________________________________________________________ 
~PARAMETER INFORMATION 
# MNEM.UNIT                                              DATA : DESCRIPTION OF MNEMONIC 
#-----.-----                    ----------------------------- : ----------------------------- 
HIDE.                                  COMPENSATED Z-DENSILOG : HEADER IDENTIFER 
HID1.                                 COMPENSATED NEUTRON LOG : HEADER IDENTIFER 
HID2.                                      DIGITAL SPECTRALOG : HEADER IDENTIFER 
HID3.                                           GAMMA RAY LOG : HEADER IDENTIFER 
CLAB.                                                  COUNTY : COUNTY LABEL (COMMENTS) 
SLAB.                                                   STATE : STATE LABEL (COMMENTS) 
FILE.                                                 MD10587 : FILE NUMBER 
CMT2.                                             FINAL PRINT : COMMENT 2 
FL1.                                          SEC.14, BLK. 43 : FIELD LOCATION 1 
FL3.                                  UNIVERSITY LAND SURVEY. : FIELD LOCATION 3 
OS2.                                                  HDIL/GR : OTHER SERVICES LINE 2 
OS3.                                                  XMAC/GR : OTHER SERVICES LINE 3 
OS4.                                                      BHP : OTHER SERVICES LINE 4 
PDAT.                                                    G.L. : PERMANENT DATUM 
EPD.FT                                                   2678 : ELEVATION OF PERM. DATUM 
LMF.                                                     K.B. : LOG MEASURED FROM 
APD.FT                                                     25 : ABOVE PERMANENT DATUM 
DMF.                                            KELLY BUSHING : DRILLING MEASURED FROM 
EKB.FT                                                   2703 : ELEVATION OF KELLY BUSHING 
EDF.FT                                                   2702 : ELEVATION OF DERRICK FLOOR 
EGL.FT                                                   2678 : ELEVATION OF GROUND LEVEL 
RUN.                                                        1 : RUN NUMBER 
TRIP.                                                       1 : TRIP NUMBER 
SON.                                                   636509 : SERVICE ORDER NUMBER 
TDD.FT                                                   7363 : TOTAL DEPTH - DRILLER 
TDL.FT                                                   7363 : TOTAL DEPTH - LOGGER 
BLI.FT                                                   7273 : BOTTOM LOG INTERVAL 
TLI.FT                                                    924 : TOP LOG INTERVAL 
CSIZ.IN                                                 9.625 : CASING SIZE 
CBDR.FT                                                   927 : CASING BOTTOM - DRILLER 
CBLO.FT                                                   924 : CASING BOTTOM - LOGGER 
BS.IN                                                    8.75 : BIT SIZE 
DFT.                                            OIL BASED MUD : DRILLING FLUID TYPE 
DFD.LB/G                                                    9 : DRILLING FLUID DENSITY 
DFV.S                                                      20 : DRILLING FLUID VISCOSITY 
MSS.                                                      OBM : MUD SAMPLE SOURCE 
MFSS.                                                      -- : MUD FILTRATE SAMPLE SOURCE 
MCSS.                                                      -- : MUD CAKE SAMPLE SOURCE 
TSC.                                                  7 HOURS : TIME SINCE CIRCULATION 
MRT.DEGF                                                  152 : MAXIMUM RECORDED TEMPERATURE 
LUN.                                                  HL-6713 : LOGGING UNIT NUMBER 
LUL.                                              MIDLAND, TX : LOGGING UNIT LOCATION 
ENGI.                                               O. ROBLES : ENGINEERS NAME 
WITN.                                                W. LUTKE : WITNESS NAME 
TSTR.                                           ZDL/CN/DSL/GR : TITLE SERVICE MNEMONIC 
TSTG.                                                      NA : TITLE SERVICE MNEMONIC 
STUS.                                                   FINAL : STATUS 
LCNM.                                             BAKER ATLAS : LOGGING COMPANY NAME 
LCC.                                                      150 : LOGGING COMPANY CODE 
OPMD.                                                 OH.WIRE : OPERATION MODE 
PANA.                                               O. ROBLES : PROCESSING ANALYST 
PCON.                                             BAKER ATLAS : PROCESSING CONTRACTOR
#___________________________________________________________________________________________________ 
~CURVE INFORMATION 
# MNEM.UNIT           : CURVE DESCRIPTION 
#-----.-----          : ----------------------------- 
 DEPT.FT               : MEASURED DEPTH 
 CALI.IN               : CALIPER (CALX - CALIPER FROM X-AXIS OF XY CALIPER(S)) 
 GR.API                : GAMMA RAY (GAMMA RAY) 
 SGR.API               : SPECTRAL GAMMA RAY (KTH - STRIPPED POTASSIUM-THORIUM) 
 SGR_TH_PPM.PPM        : SPECTRAL GAMMA RAY - THORIUM IN PPM (TH - THORIUM CONCENTRATION) 
 SGR_U_PPM.PPM         : SPECTRAL GAMMA RAY - URANIUM IN PPM (U - URANIUM CONTENT) 
 SP.MV                 : SPONTANEOUS POTENTIAL (SPDH - SPONTANEOUS POTENTIAL PROCESSED IN COMMON REMOTE) 
 DT.US/FT              : SONIC DELTA TRANSIT TIME (DT24 - SLOWNESS OVER 24-INCH INTERVAL) 
 PE.B/E                : PHOTOELECTRIC EFFECT/FACTOR (PHOTO ELECTRIC CROSS-SECTION) 
 RESS_10M2.OHMM        : RESISTIVITY SHALLOW - 10 IN 2 FT VERTICAL (M2R1 - VERTICAL 2-FOOT RESOLUTION MATCHED RESISTIVITY 10-INCH DOI) 
 RESS_20M2.OHMM        : RESISTIVITY SHALLOW - 20 IN 2 FT VERTICAL (M2R2 - VERTICAL 2-FOOT RESOLUTION MATCHED RESISTIVITY 20-INCH DOI) 
 RESM_30M2.OHMM        : RESISTIVITY MEDIUM - 30 IN 2 FT VERTICAL (M2R3 - VERTICAL 2-FOOT RESOLUTION MATCHED RESISTIVITY 30-INCH DOI) 
 RESD_60M2.OHMM        : RESISTIVITY DEEP - 60 IN 2 FT VERTICAL (M2R6 - VERTICAL 2-FOOT RESOLUTION MATCHED RESISTIVITY 60-INCH DOI) 
 RESD_90M2.OHMM        : RESISTIVITY DEEP - 90 IN 2 FT VERTICAL (M2R9 - VERTICAL 2-FOOT RESOLUTION MATCHED RESISTIVITY 90-INCH DOI) 
 RESD_120M2.OHMM       : RESISTIVITY DEEP - 120 IN 2 FT VERTICAL (M2RX - VERTICAL 2-FOOT RESOLUTION MATCHED RESISTIVITY 120-INCH DOI) 
 DPHI.V/V              : DENSITY POROSITY (PORZC - CORRECTED POROSITY) 
 NPHI.V/V              : NEUTRON POROSITY (CNC - BOREHOLE SIZE CORRECTED COMPENSATED NEUTRON POROSITY) 
 SPHI.V/V              : SONIC POROSITY (PORA - ACOUSTIC POROSITY) 
 DRHO.G/CC             : DENSITY CORRECTION (ZCOR - DENSITY CORRECTION) 
 RHOB.G/CC             : BULK DENSITY (ZDNC - BOREHOLE SIZE/MUD WEIGHT CORRECTED DENSITY) 
 TEMP.DEGF             : TEMPERATURE (WTBH - TEMPERATURE OF BOREHOLE) 
 #___________________________________________________________________________________________________ 
~A         DEPT           CALI             GR            SGR     SGR_TH_PPM      SGR_U_PPM             SP             DT             PE      RESS_10M2      RESS_20M2      RESM_30M2      RESD_60M2      RESD_90M2     RESD_120M2           DPHI           NPHI           SPHI           DRHO           RHOB           TEMP
# ...
         3032.0          9.262        103.880         86.826         11.721          2.525       -271.664         97.505         3.5770          3.425          3.504          3.637          3.794          3.926          3.975        0.11570        0.28324        0.35045        0.01100         2.5120        111.689
         3032.5          9.195        101.293         81.406         11.166          2.902       -271.717         96.732         3.7440          3.488          3.488          3.592          3.750          3.878          3.928        0.11766        0.29214        0.34503        0.02200         2.5090        112.004
         3033.0          9.123         99.067         77.073         10.581          3.181       -271.946         95.137         3.8940          3.769          3.703          3.789          3.959          4.088          4.144        0.11197        0.30565        0.33383        0.03300         2.5190        112.052
         3033.5          9.055         96.852         74.210         10.124          3.282       -271.849         92.668         3.9940          4.337          4.210          4.294          4.491          4.632          4.700        0.09918        0.30103        0.31649        0.03700         2.5400        112.056
         3034.0          9.005         94.003         72.366          9.790          3.179       -271.348         89.602         4.0470          4.977          4.814          4.908          5.140          5.296          5.378        0.08657        0.27896        0.29496        0.03300         2.5620        112.000
         3034.5          8.986         90.330         71.277          9.638          2.881       -270.765         86.600         4.1130          5.337          5.210          5.323          5.571          5.735          5.830        0.07728        0.25611        0.27387        0.02200         2.5780        111.526
         3035.0          8.984         86.600         70.214          9.657          2.574       -269.939         84.282         4.1840          5.294          5.273          5.403          5.650          5.814          5.916        0.07045        0.24389        0.25760        0.01400         2.5900        111.020
         3035.5          8.981         85.256         70.166          9.674          2.407       -268.244         83.219         4.1830          4.929          5.016          5.167          5.401          5.555          5.659        0.06948        0.24197        0.25013        0.01000         2.5910        110.964
         3036.0          8.970         88.349         73.434          9.683          2.341       -266.781         83.959         4.0380          4.442          4.590          4.751          4.964          5.103          5.204        0.07712        0.24766        0.25533        0.00800         2.5780        111.147
         3036.5          8.962         94.681         78.857          9.708          2.416       -266.502         86.351         3.8010          4.053          4.208          4.364          4.558          4.685          4.783        0.08794        0.26253        0.27213        0.00900         2.5600        111.367
         3037.0          8.962        100.810         83.483          9.747          2.555       -267.254         89.230         3.6070          3.851          3.978          4.123          4.305          4.425          4.523        0.09529        0.28031        0.29235        0.01200         2.5470        111.937
         3037.5          8.972        103.073         84.959          9.781          2.620       -268.257         90.505         3.5020          3.868          3.949          4.079          4.259          4.379          4.482        0.09614        0.28533        0.30130        0.01500         2.5460        112.503
         3038.0          8.980         98.875         80.260          9.748          2.738       -269.061         88.939         3.4560          4.142          4.164          4.278          4.471          4.598          4.712        0.09004        0.27656        0.29030        0.01500         2.5560        112.444
         3038.5          8.982         90.906         71.361          9.390          2.927       -269.222         85.437         3.4950          4.668          4.617          4.718          4.939          5.079          5.212        0.08175        0.26883        0.26571        0.01200         2.5700        111.929
         3039.0          8.986         84.496         64.201          8.727          3.045       -269.050         82.190         3.6430          5.338          5.199          5.295          5.554          5.713          5.870        0.07902        0.26314        0.24290        0.00600         2.5750        111.624
         3039.5          8.994         81.086         60.406          8.100          3.091       -269.686         80.628         3.8170          6.085          5.863          5.967          6.276          6.457          6.643        0.08101        0.24997        0.23194        0.00100         2.5710        111.696
         3040.0          8.990         77.685         56.839          7.564          3.136       -270.971         80.497         3.9250          7.034          6.781          6.924          7.301          7.514          7.738        0.08041        0.23330        0.23102        0.00300         2.5720        111.809
         3040.5          8.978         73.774         53.206          7.204          3.167       -272.136         81.028         3.9520          7.899          7.758          7.971          8.398          8.653          8.920        0.07574        0.22000        0.23474        0.01000         2.5800        111.583
         3041.0          8.977         73.455         52.575          7.053          3.195       -272.614         81.706         3.9420          7.681          7.802          8.064          8.501          8.765          9.043        0.06927        0.20944        0.23951        0.01700         2.5920        111.078
         3041.5          8.987         77.760         55.143          6.940          3.271       -271.905         82.506         3.9520          6.659          6.982          7.281          7.675          7.921          8.177        0.06397        0.20481        0.24512        0.02200         2.6010        110.795
         3042.0          9.001         80.173         56.349          6.821          3.359       -270.131         83.387         4.0020          6.064          6.512          6.835          7.198          7.436          7.678        0.06159        0.20830        0.25131        0.02100         2.6050        111.052
         3042.5          9.038         77.711         54.709          6.718          3.381       -268.708         84.230         4.0580          5.968          6.513          6.862          7.217          7.466          7.710        0.06256        0.21028        0.25723        0.01600         2.6030        111.719
         3043.0          9.093         75.662         54.114          6.636          3.301       -269.002         85.149         4.0560          5.789          6.357          6.705          7.042          7.295          7.532        0.06623        0.20920        0.26368        0.00900         2.5970        112.329
         3043.5          9.131         77.461         57.156          6.601          3.092       -270.549         86.154         4.0120          5.404          5.913          6.233          6.540          6.786          7.003        0.07034        0.21522        0.27075        0.00500         2.5900        112.621
         3044.0          9.144         79.397         61.127          6.664          2.778       -271.700         87.032         4.0400          5.206          5.649          5.948          6.238          6.482          6.684        0.06979        0.23203        0.27691        0.00600         2.5910        112.685
         3044.5          9.131         79.762         63.736          6.831          2.496       -271.663         87.673         4.1420          5.255          5.662          5.957          6.246          6.499          6.694        0.06548        0.25008        0.28141        0.01100         2.5980        112.754
