###############################################
##         ENVERUS                           ##
##         ESS - Open Hole                   ##
##         PERMIAN / MIDLAND                 ##
##         Nov 03 2023  V4.0                 ##
##         42-235-34485-90-00                ##
###############################################
## Copyright 2017-2023  ENVERUS.  All Rights Reserved. 
## Confidential - Property of ENVERUS, use governed by terms and 
## conditions found within the existing Information Services Subscription Agreement 
## (as may be amended, the “ISSA”) between Customer and ENVERUS. 
## 
~VERSION INFORMATION
# MNEM.UNIT                               DATA : DESCRIPTION OF MNEMONIC
#-----.-----     ----------------------------- : -----------------------------
VERS.                                     2.00 : CWLS LOG ASCII STANDARD - VERSION 2.00
WRAP.                                       NO : MULTIPLE LINES PER DEPTH STEP
VEND.                                  ENVERUS : VENDOR
TYPE.                          ESS - OPEN HOLE : ENVERUS ESSENTIAL CURVES – ACCESSIBLE THROUGH ENVERUS PRISM(TM)
DOC.                                  51094636 : ENVERUS HEADER RAW DOCUMENT ID
#___________________________________________________________________________________________________ 
~WELL INFORMATION 
# FMikr3+JyUztgncWDJlJj4UAVtjFs/xFdFTkOn/rCNZKdsWfgftU4ooQRZEXdd26HCoruynA4NvJdeWU6aB/BQ== 
# MNEM.UNIT                                              DATA : DESCRIPTION OF MNEMONIC 
#-----.-----                    ----------------------------- : ----------------------------- 
CNTY.                                                   IRION : COUNTY 
STATE.                                                  TEXAS : STATE 
CNTRY.                                                    USA : COUNTRY 
API.                                             42-235-34485 : API (10 Digit) 
API_14.                                    42-235-34485-90-00 : API (14 Digits) 
API_14_std.                                 42-235-34485-9000 : API (14 Digits Standard) 
UWI.                                           42235344859000 : UNIQUE WELL ID 
WELL.                                    UNIVERSITY 40-13 #1H : WELL NAME
STRT.FT                                                 187.0 : START DEPTH
STOP.FT                                                7212.0 : STOP DEPTH
STEP.FT                                                   0.5 : STEP BETWEEN DEPTHS
NULL.                                                 -999.25 : NULL VALUE
PREV_UWI.                                        42-235-34485 : API WELLHOLE NUMBER 
COMP.                                     EOG RESOURCES, INC. : COMPANY NAME 
COUN.                                                   IRION : COUNTY 
DAT2.                                                   02000 : LOGGING DATE 2 
DAT3.                                                   02000 : LOGGING DATE 3 
DAT4.                                                   02000 : LOGGING DATE 4 
DATE.                                              2/-1/-2010 : LOGGING DATE 
DFT.                                                    FRESH : DRILLING FLUID TYPE 
DMF.                                                       KB : DRILLING MEASURED 
ENGI.                                              R. ATKISON : ENGINEER 1 NAME 
LOC.                                        660 FNL & 660 FEL : FIELD LOCATION 
FL1.                                        660 FNL & 660 FEL : FIELD LOCATION LINE 1 
FL2.                                        SECT.13, BLOCK 40 : FIELD LOCATION LINE 2 
FLD.                                            LIN  WOLFCAMP : FIELD NAME 
HDAT.                                                   02000 : DATUM 
LMF.                                                       KB : LOG MEASURED FROM 
LUL.                                                   ODESSA : LOGGING UNIT LOCATION 
MCSS.                                                    MEAS : MUD CAKE SAMPLE SOURCE 
MFSS.                                                    MEAS : MUD FILTRATE SAMPLE SOURCE 
MSS.                                                  MUD PIT : SOURCE OF MUD SAMPLE 
OS1.                                             CSNG-DSN-SDL : OTHER SERVICES LINE 1 
OS2.                                                 DLL-MSFL : OTHER SERVICES LINE 2 
PDAT.                                                      GL : PERMANENT DATUM 
R1.             ANNULAR HOLE VOLUME CALCULATED FOR 5.5 INCH CASING. : REMARKS LINE 1 
R2.             LOGGING SCALES AND INTERVALS AS PER CUSTOMER REQUEST. : REMARKS LINE 2 
R3.             GR/CSNG/DSNT/SDLT/WSTT/DLLT/MGRD RAN IN COMBINATION AS SHOWN : REMARKS LINE 3 
RANG.                                                     N/A : RANGE 
RDT2.                                                   02000 : CASING DATE 2 
RDT3.                                                   02000 : CASING DATE 3 
RDT4.                                                   02000 : CASING DATE 4 
RDT5.                                                   02000 : CASING DATE 5 
SECT.                                                     N/A : SECTION 
SON.                                                  7176848 : SERVICE/TICKET ORDER NUMBER 
PROV.                                                   TEXAS : STATE 
TOWN.                                                     N/A : TOWNSHIP 
WITN.                                              GREG PALKO : WITNESS 1 NAME
#___________________________________________________________________________________________________ 
~PARAMETER INFORMATION 
# MNEM.UNIT                                              DATA : DESCRIPTION OF MNEMONIC 
#-----.-----                    ----------------------------- : -----------------------------
#___________________________________________________________________________________________________ 
~CURVE INFORMATION 
# MNEM.UNIT           : CURVE DESCRIPTION 
#-----.-----          : ----------------------------- 
 DEPT.FT               : MEASURED DEPTH 
 DT__E.US/FT           : SONIC DELTA TRANSIT TIME (DTC - DELTA-T COMPRESSIONAL - WAVE SONIC) 
 DTS__E.US/FT          : SHEAR SONIC TRAVEL TIME (SINGLE DIPOLE SONIC - WAVE SONIC) 
 SPHI_LS__E.V/V        : SONIC POROSITY - LIMESTONE (SPHIDTC - SONIC POROSITY MTX=47.6 (DTC)) 
 TENS__E.LBS           : CABLE TENSION (TENSION) 
 #___________________________________________________________________________________________________ 
~A         DEPT          DT__E         DTS__E     SPHI_LS__E        TENS__E
# ...
         4162.0       -999.250     -999.25000     -999.25000      4345.1338
         4162.5       -999.250     -999.25000     -999.25000      4327.9419
         4163.0       -999.250     -999.25000     -999.25000      4330.9097
         4163.5       -999.250     -999.25000     -999.25000      4324.7383
         4164.0       -999.250     -999.25000     -999.25000      4344.0742
         4164.5       -999.250     -999.25000     -999.25000      4275.9033
         4165.0       -999.250     -999.25000     -999.25000      4310.4233
         4165.5       -999.250     -999.25000     -999.25000      4353.8999
         4166.0       -999.250     -999.25000     -999.25000      4320.7900
         4166.5       -999.250     -999.25000     -999.25000      4286.3955
         4167.0       -999.250     -999.25000     -999.25000      4362.6533
         4167.5       -999.250     -999.25000     -999.25000      4383.1846
         4168.0       -999.250     -999.25000     -999.25000      4297.3042
         4168.5       -999.250     -999.25000     -999.25000      4293.9199
         4169.0       -999.250     -999.25000     -999.25000      4412.6831
         4169.5       -999.250     -999.25000     -999.25000      4399.5298
         4170.0       -999.250     -999.25000     -999.25000      4376.4492
         4170.5       -999.250     -999.25000     -999.25000      4364.1196
         4171.0       -999.250     -999.25000     -999.25000      4328.5181
         4171.5       -999.250     -999.25000     -999.25000      4359.9453
         4172.0       -999.250     -999.25000     -999.25000      4349.8833
         4172.5       -999.250     -999.25000     -999.25000      4323.1255
         4173.0       -999.250     -999.25000     -999.25000      4343.8252
         4173.5       -999.250     -999.25000     -999.25000      4402.0566
         4174.0       -999.250     -999.25000     -999.25000      4378.9092
         4174.5       -999.250     -999.25000     -999.25000      4397.6909
         4175.0       -999.250     -999.25000     -999.25000      4400.5562
         4175.5       -999.250     -999.25000     -999.25000      4383.1846
         4176.0       -999.250     -999.25000     -999.25000      4333.2549
         4176.5       -999.250     -999.25000     -999.25000      4348.9697
         4177.0       -999.250     -999.25000     -999.25000      4371.3730
         4177.5       -999.250     -999.25000     -999.25000      4357.4868
         4178.0       -999.250     -999.25000     -999.25000      4363.9839
         4178.5       -999.250     -999.25000     -999.25000      4382.8794
         4179.0       -999.250     -999.25000     -999.25000      4372.5913
         4179.5       -999.250     -999.25000     -999.25000      4347.6499
         4180.0         81.248      150.39080        0.23800      4374.0244
         4180.5         81.968      151.86420        0.24310      4362.4839
         4181.0         82.157      152.05020        0.24440      4347.5366
         4181.5         83.788      154.77290        0.25590      4346.7808
         4182.0         85.723      157.41760        0.26960      4387.1548
         4182.5         87.225      159.49390        0.28020      4378.8408
         4183.0         88.194      160.61160        0.28710      4373.4150
         4183.5         88.564      161.70560        0.28970      4354.1133
         4184.0         88.695      161.71770        0.29060      4370.2446
         4184.5         88.794      161.52920        0.29130      4360.8931
         4185.0         88.487      161.38340        0.28920      4371.2495
         4185.5         87.779      161.48340        0.28420      4374.8145
         4186.0         87.117      160.99730        0.27950      4381.3569
         4186.5         86.385      159.91740        0.27430      4376.1221
         4187.0         85.441      158.67440        0.26760      4366.3086
         4187.5         84.605      156.98660        0.26170      4402.5645
         4188.0         84.191      155.28370        0.25880      4415.9102
         4188.5         84.855      154.27280        0.26350      4389.4341
         4189.0         86.629      155.65280        0.27600      4388.7236
         4189.5         88.223      158.69220        0.28730      4437.0054
         4190.0         89.006      161.04720        0.29280      4414.2397
         4190.5         89.914      163.74100        0.29930      4378.5820
         4191.0         91.357      166.82990        0.30950      4370.5952
         4191.5         93.007      168.94050        0.32110      4392.1641
         4192.0         94.205      170.09180        0.32960      4351.1919
         4192.5         94.924      171.46590        0.33470      4387.0986
         4193.0         95.415      174.41580        0.33820      4429.4922
         4193.5         95.542      177.53170        0.33910      4423.3999
         4194.0         95.493      178.42500        0.33870      4381.6499
         4194.5         95.562      178.92820        0.33920      4376.3818
         4195.0         95.826      180.51940        0.34110      4390.4487
         4195.5         96.334      182.99860        0.34470      4403.2412
         4196.0         97.103      185.10810        0.35010      4402.1470
         4196.5         97.339      186.28420        0.35180      4376.6860
         4197.0         96.483      186.82620        0.34570      4405.5425
         4197.5         95.103      186.93170        0.33590      4413.8003
         4198.0         93.761      186.15460        0.32650      4416.9136
         4198.5         92.639      182.02780        0.31850      4391.3071
         4199.0         90.739      178.27750        0.30510      4447.4512
         4199.5         88.187      175.37320        0.28700      4426.3105
         4200.0         87.042      172.80370        0.27890      4395.0513
         4200.5         88.192      172.03580        0.28710      4414.3301
         4201.0         90.304      172.49560        0.30200      4450.4629
         4201.5         91.387      175.74930        0.30970      4389.9531
         4202.0         92.299      182.14110        0.31610      4384.7183
         4202.5         93.919      190.52950        0.32760      4451.7715
         4203.0         94.820      198.33540        0.33390      4444.9800
         4203.5         94.595      202.64360        0.33240      4396.8682
         4204.0         94.217      203.35680        0.32970      4441.4385
         4204.5         94.335      201.78570        0.33050      4454.4224
         4205.0         95.264      198.69580        0.33710      4401.2109
         4205.5         97.329      195.95970        0.35170      4390.5625
         4206.0        101.053      195.31720        0.37800      4430.5752
         4206.5        104.374      196.35240        0.40150      4398.2549
         4207.0        106.251      198.86570        0.41480      4378.8188
         4207.5        106.971      200.46620        0.41990      4472.8110
         4208.0        105.989      204.05090        0.41290      4480.4365
         4208.5        103.932      204.78360        0.39840      4484.2603
         4209.0        101.624      205.00500        0.38210      4395.6499
         4209.5         99.593      206.41800        0.36770      4391.9492
         4210.0         97.974      207.88100        0.35630      4477.8872
         4210.5         97.149      208.32350        0.35040      4438.5166
         4211.0         97.044      207.12220        0.34970      4334.3950
         4211.5         96.949      204.09860        0.34900      4418.8096
         4212.0         96.957      201.75710        0.34910      4502.4341
         4212.5         97.280      201.42800        0.35130      4367.8760
         4213.0         97.229      200.64040        0.35100      4261.8145
         4213.5         96.228      197.07040        0.34390      4420.8506
         4214.0         94.283      195.81430        0.33010      4477.0972
         4214.5         93.653      196.11670        0.32570      4351.4287
