###############################################
##         ENVERUS                           ##
##         ESS - Open Hole                   ##
##         PERMIAN / MIDLAND                 ##
##         Nov 04 2023  V4.0                 ##
##         42-383-38290-90-00                ##
###############################################
## Copyright 2017-2023  ENVERUS.  All Rights Reserved. 
## Confidential - Property of ENVERUS, use governed by terms and 
## conditions found within the existing Information Services Subscription Agreement 
## (as may be amended, the “ISSA”) between Customer and ENVERUS. 
## 
~VERSION INFORMATION
# MNEM.UNIT                               DATA : DESCRIPTION OF MNEMONIC
#-----.-----     ----------------------------- : -----------------------------
VERS.                                     2.00 : CWLS LOG ASCII STANDARD - VERSION 2.00
WRAP.                                       NO : MULTIPLE LINES PER DEPTH STEP
VEND.                                  ENVERUS : VENDOR
TYPE.                          ESS - OPEN HOLE : ENVERUS ESSENTIAL CURVES – ACCESSIBLE THROUGH ENVERUS PRISM(TM)
DOC.                                  51094660 : ENVERUS HEADER RAW DOCUMENT ID
#___________________________________________________________________________________________________ 
~WELL INFORMATION 
# m1FPRISIcKBcMzk40yd34Gtphn5JoOH7jww50mYGKLfe2DZfACMCifCPsuzsX4y0yEiREccSdbTgxIOvDda2cA== 
# MNEM.UNIT                                              DATA : DESCRIPTION OF MNEMONIC 
#-----.-----                    ----------------------------- : ----------------------------- 
CNTY.                                                  REAGAN : COUNTY 
STATE.                                                  TEXAS : STATE 
CNTRY.                                                    USA : COUNTRY 
API.                                             42-383-38290 : API (10 Digit) 
API_14.                                    42-383-38290-90-00 : API (14 Digits) 
API_14_std.                                 42-383-38290-9000 : API (14 Digits Standard) 
UWI.                                           42383382909000 : UNIQUE WELL ID 
WELL.                                    UNIVERSITY 43-14 #6H : WELL NAME
STRT.FT                                                 900.0 : START DEPTH
STOP.FT                                                7359.0 : STOP DEPTH
STEP.FT                                                   0.5 : STEP BETWEEN DEPTHS
NULL.                                                 -999.25 : NULL VALUE
COMP.                       DEVON ENERGY PRODUCTION CO., L.P. : COMPANY 
FLD.                                           LIN (WOLFCAMP) : FIELD 
LOC.                                       201 FSL & 1115 FWL : LOCATION 
SRVC.                                             BAKER ATLAS : SERVICE COMPANY 
DATE.                                             25-AUG-2013 : LOG DATE 
PREV_APII.                                     42383382900000 : API NUMBER 
PREV_UWI.                                      42383382900000 : UNIQUE WELL ID
#___________________________________________________________________________________________________ 
~PARAMETER INFORMATION 
# MNEM.UNIT                                              DATA : DESCRIPTION OF MNEMONIC 
#-----.-----                    ----------------------------- : ----------------------------- 
HIDE.                                  COMPENSATED Z-DENSILOG : HEADER IDENTIFER 
HID1.                                 COMPENSATED NEUTRON LOG : HEADER IDENTIFER 
HID2.                                      DIGITAL SPECTRALOG : HEADER IDENTIFER 
HID3.                                           GAMMA RAY LOG : HEADER IDENTIFER 
CLAB.                                                  COUNTY : COUNTY LABEL (COMMENTS) 
SLAB.                                                   STATE : STATE LABEL (COMMENTS) 
FILE.                                                 MD10587 : FILE NUMBER 
CMT2.                                             FINAL PRINT : COMMENT 2 
FL1.                                          SEC.14, BLK. 43 : FIELD LOCATION 1 
FL3.                                  UNIVERSITY LAND SURVEY. : FIELD LOCATION 3 
OS2.                                                  HDIL/GR : OTHER SERVICES LINE 2 
OS3.                                                  XMAC/GR : OTHER SERVICES LINE 3 
OS4.                                                      BHP : OTHER SERVICES LINE 4 
PDAT.                                                    G.L. : PERMANENT DATUM 
EPD.FT                                                   2678 : ELEVATION OF PERM. DATUM 
LMF.                                                     K.B. : LOG MEASURED FROM 
APD.FT                                                     25 : ABOVE PERMANENT DATUM 
DMF.                                            KELLY BUSHING : DRILLING MEASURED FROM 
EKB.FT                                                   2703 : ELEVATION OF KELLY BUSHING 
EDF.FT                                                   2702 : ELEVATION OF DERRICK FLOOR 
EGL.FT                                                   2678 : ELEVATION OF GROUND LEVEL 
RUN.                                                        1 : RUN NUMBER 
TRIP.                                                       1 : TRIP NUMBER 
SON.                                                   636509 : SERVICE ORDER NUMBER 
TDD.FT                                                   7363 : TOTAL DEPTH - DRILLER 
TDL.FT                                                   7363 : TOTAL DEPTH - LOGGER 
BLI.FT                                                   7273 : BOTTOM LOG INTERVAL 
TLI.FT                                                    924 : TOP LOG INTERVAL 
CSIZ.IN                                                 9.625 : CASING SIZE 
CBDR.FT                                                   927 : CASING BOTTOM - DRILLER 
CBLO.FT                                                   924 : CASING BOTTOM - LOGGER 
BS.IN                                                    8.75 : BIT SIZE 
DFT.                                            OIL BASED MUD : DRILLING FLUID TYPE 
DFD.LB/G                                                    9 : DRILLING FLUID DENSITY 
DFV.S                                                      20 : DRILLING FLUID VISCOSITY 
MSS.                                                      OBM : MUD SAMPLE SOURCE 
MFSS.                                                      -- : MUD FILTRATE SAMPLE SOURCE 
MCSS.                                                      -- : MUD CAKE SAMPLE SOURCE 
TSC.                                                  7 HOURS : TIME SINCE CIRCULATION 
MRT.DEGF                                                  152 : MAXIMUM RECORDED TEMPERATURE 
LUN.                                                  HL-6713 : LOGGING UNIT NUMBER 
LUL.                                              MIDLAND, TX : LOGGING UNIT LOCATION 
ENGI.                                               O. ROBLES : ENGINEERS NAME 
WITN.                                                W. LUTKE : WITNESS NAME 
TSTR.                                           ZDL/CN/DSL/GR : TITLE SERVICE MNEMONIC 
TSTG.                                                      NA : TITLE SERVICE MNEMONIC 
STUS.                                                   FINAL : STATUS 
LCNM.                                             BAKER ATLAS : LOGGING COMPANY NAME 
LCC.                                                      150 : LOGGING COMPANY CODE 
OPMD.                                                 OH.WIRE : OPERATION MODE 
PANA.                                               O. ROBLES : PROCESSING ANALYST 
PCON.                                             BAKER ATLAS : PROCESSING CONTRACTOR
#___________________________________________________________________________________________________ 
~CURVE INFORMATION 
# MNEM.UNIT           : CURVE DESCRIPTION 
#-----.-----          : ----------------------------- 
 DEPT.FT               : MEASURED DEPTH 
 CALI.IN               : CALIPER (CALX - CALIPER FROM X-AXIS OF XY CALIPER(S)) 
 GR.API                : GAMMA RAY (GAMMA RAY) 
 SGR.API               : SPECTRAL GAMMA RAY (KTH - STRIPPED POTASSIUM-THORIUM) 
 SGR_TH_PPM.PPM        : SPECTRAL GAMMA RAY - THORIUM IN PPM (TH - THORIUM CONCENTRATION) 
 SGR_U_PPM.PPM         : SPECTRAL GAMMA RAY - URANIUM IN PPM (U - URANIUM CONTENT) 
 SP.MV                 : SPONTANEOUS POTENTIAL (SPDH - SPONTANEOUS POTENTIAL PROCESSED IN COMMON REMOTE) 
 DT.US/FT              : SONIC DELTA TRANSIT TIME (DT24 - SLOWNESS OVER 24-INCH INTERVAL) 
 PE.B/E                : PHOTOELECTRIC EFFECT/FACTOR (PHOTO ELECTRIC CROSS-SECTION) 
 RESS_10M2.OHMM        : RESISTIVITY SHALLOW - 10 IN 2 FT VERTICAL (M2R1 - VERTICAL 2-FOOT RESOLUTION MATCHED RESISTIVITY 10-INCH DOI) 
 RESS_20M2.OHMM        : RESISTIVITY SHALLOW - 20 IN 2 FT VERTICAL (M2R2 - VERTICAL 2-FOOT RESOLUTION MATCHED RESISTIVITY 20-INCH DOI) 
 RESM_30M2.OHMM        : RESISTIVITY MEDIUM - 30 IN 2 FT VERTICAL (M2R3 - VERTICAL 2-FOOT RESOLUTION MATCHED RESISTIVITY 30-INCH DOI) 
 RESD_60M2.OHMM        : RESISTIVITY DEEP - 60 IN 2 FT VERTICAL (M2R6 - VERTICAL 2-FOOT RESOLUTION MATCHED RESISTIVITY 60-INCH DOI) 
 RESD_90M2.OHMM        : RESISTIVITY DEEP - 90 IN 2 FT VERTICAL (M2R9 - VERTICAL 2-FOOT RESOLUTION MATCHED RESISTIVITY 90-INCH DOI) 
 RESD_120M2.OHMM       : RESISTIVITY DEEP - 120 IN 2 FT VERTICAL (M2RX - VERTICAL 2-FOOT RESOLUTION MATCHED RESISTIVITY 120-INCH DOI) 
 DPHI.V/V              : DENSITY POROSITY (PORZC - CORRECTED POROSITY) 
 NPHI.V/V              : NEUTRON POROSITY (CNC - BOREHOLE SIZE CORRECTED COMPENSATED NEUTRON POROSITY) 
 SPHI.V/V              : SONIC POROSITY (PORA - ACOUSTIC POROSITY) 
 DRHO.G/CC             : DENSITY CORRECTION (ZCOR - DENSITY CORRECTION) 
 RHOB.G/CC             : BULK DENSITY (ZDNC - BOREHOLE SIZE/MUD WEIGHT CORRECTED DENSITY) 
 TEMP.DEGF             : TEMPERATURE (WTBH - TEMPERATURE OF BOREHOLE) 
 #___________________________________________________________________________________________________ 
~A         DEPT           CALI             GR            SGR     SGR_TH_PPM      SGR_U_PPM             SP             DT             PE      RESS_10M2      RESS_20M2      RESM_30M2      RESD_60M2      RESD_90M2     RESD_120M2           DPHI           NPHI           SPHI           DRHO           RHOB           TEMP
# ...
         3877.0          9.174        100.266         79.283         11.358          3.260       -112.570         98.861         3.3180          2.152          2.225          2.291          2.353          2.400          2.407        0.14151        0.37026        0.35998        0.01600         2.4680        121.923
         3877.5          9.182        104.122         83.760         11.987          3.174       -114.244        101.769         3.4120          2.082          2.139          2.200          2.261          2.306          2.313        0.14898        0.41921        0.38040        0.01500         2.4550        122.123
         3878.0          9.167        106.449         85.158         12.045          3.303       -113.991        104.399         3.4540          2.134          2.172          2.229          2.292          2.336          2.345        0.15143        0.43880        0.39887        0.01200         2.4510        122.345
         3878.5          9.132        107.222         84.647         11.704          3.478       -111.315        105.143         3.4890          2.303          2.320          2.373          2.441          2.487          2.498        0.15074        0.41650        0.40410        0.00900         2.4520        122.385
         3879.0          9.092        106.232         82.005         10.916          3.724       -108.671        103.953         3.5390          2.588          2.584          2.634          2.711          2.760          2.774        0.14802        0.39696        0.39574        0.00500         2.4570        122.053
         3879.5          9.065        103.495         77.288          9.563          4.026       -108.455        102.251         3.6260          2.854          2.836          2.885          2.971          3.021          3.041        0.14068        0.39585        0.38379        0.00600         2.4690        121.647
         3880.0          9.057         99.483         72.456          8.196          4.147       -110.174        100.932         3.6970          2.850          2.832          2.875          2.961          3.008          3.032        0.13071        0.38375        0.37452        0.01100         2.4860        121.644
         3880.5          9.066         95.168         68.463          7.379          4.088       -112.142         99.355         3.6090          2.664          2.647          2.682          2.763          2.804          2.833        0.12546        0.35588        0.36345        0.01500         2.4950        122.093
         3881.0          9.076         91.667         64.723          7.059          4.082       -113.344         96.469         3.4040          2.675          2.650          2.681          2.763          2.800          2.836        0.12336        0.34056        0.34318        0.01500         2.4990        122.555
         3881.5          9.070         87.531         59.477          6.968          4.237       -113.097         92.311         3.3200          3.080          3.037          3.072          3.165          3.206          3.254        0.11282        0.35133        0.31398        0.01600         2.5170        122.835
         3882.0          9.044         81.530         53.389          6.955          4.410       -111.251         88.118         3.5260          3.788          3.726          3.773          3.889          3.936          4.007        0.09266        0.36193        0.28454        0.02100         2.5520        122.600
         3882.5          9.014         78.931         51.482          6.930          4.418       -108.960         85.157         3.8420          3.989          3.945          3.994          4.115          4.164          4.251        0.08319        0.35250        0.26374        0.02700         2.5680        121.974
         3883.0          8.999         83.781         56.527          6.889          4.189       -107.575         83.679         3.9120          3.409          3.393          3.434          3.539          3.580          3.666        0.09681        0.35006        0.25336        0.02600         2.5440        121.688
         3883.5          8.995         89.327         63.194          6.989          3.836       -106.693         82.847         3.7200          2.974          2.959          2.995          3.088          3.124          3.209        0.11141        0.36644        0.24752        0.02300         2.5190        121.868
         3884.0          8.986         87.644         64.586          7.351          3.502       -105.133         82.155         3.5160          3.094          3.064          3.099          3.196          3.234          3.333        0.10331        0.36979        0.24266        0.02400         2.5330        121.821
         3884.5          8.971         83.091         63.171          7.759          3.244       -103.333         82.079         3.5130          3.699          3.629          3.663          3.780          3.826          3.956        0.07734        0.34268        0.24213        0.02400         2.5780        121.766
         3885.0          8.963         84.405         65.796          8.334          3.053       -103.275         83.381         3.6030          4.165          4.027          4.044          4.184          4.239          4.396        0.06323        0.31093        0.25127        0.01900         2.6020        122.229
         3885.5          8.971         90.544         72.611          9.473          2.851       -104.225         85.800         3.5650          4.130          3.936          3.931          4.064          4.123          4.288        0.07801        0.28993        0.26826        0.00600         2.5770        122.754
         3886.0          8.982         95.970         78.277         10.529          2.766       -103.645         87.894         3.4340          4.317          4.068          4.060          4.203          4.267          4.448        0.10261        0.28822        0.28296       -0.00100         2.5350        122.823
         3886.5          8.971         99.989         81.657         11.019          2.841       -102.001         88.603         3.3150          5.163          4.861          4.875          5.083          5.179          5.414        0.11965        0.30582        0.28794       -0.00200         2.5050        122.608
         3887.0          8.947        104.202         85.046         11.389          2.950       -100.043         88.469         3.2400          6.129          5.910          5.998          6.287          6.415          6.718        0.12976        0.32940        0.28700        0.00100         2.4880        122.567
         3887.5          8.944        108.688         88.681         11.905          3.057        -96.999         88.983         3.2270          5.977          6.048          6.207          6.515          6.664          6.989        0.13466        0.34406        0.29061        0.00800         2.4800        122.602
         3888.0          8.954        112.568         91.580         12.422          3.153        -93.060         90.291         3.2840          5.039          5.299          5.516          5.813          5.967          6.263        0.13453        0.34324        0.29979        0.01500         2.4800        122.516
         3888.5          8.942        113.722         91.939         12.773          3.243        -90.252         91.071         3.3560          4.341          4.680          4.929          5.213          5.363          5.631        0.13149        0.33236        0.30527        0.02000         2.4850        122.449
         3889.0          8.923        110.582         88.243         13.092          3.383        -89.447         90.623         3.3790          4.027          4.415          4.693          4.973          5.126          5.380        0.12820        0.32314        0.30213        0.02000         2.4910        122.567
         3889.5          8.923        106.579         83.611         13.376          3.557        -90.094         89.672         3.3560          3.981          4.425          4.732          5.017          5.178          5.429        0.12578        0.32918        0.29545        0.01600         2.4950        122.531
