###############################################
##         ENVERUS                           ##
##         ESS - Open Hole                   ##
##         PERMIAN / MIDLAND                 ##
##         Nov 03 2023  V4.0                 ##
##         42-235-34485-90-00                ##
###############################################
## Copyright 2017-2023  ENVERUS.  All Rights Reserved. 
## Confidential - Property of ENVERUS, use governed by terms and 
## conditions found within the existing Information Services Subscription Agreement 
## (as may be amended, the “ISSA”) between Customer and ENVERUS. 
## 
~VERSION INFORMATION
# MNEM.UNIT                               DATA : DESCRIPTION OF MNEMONIC
#-----.-----     ----------------------------- : -----------------------------
VERS.                                     2.00 : CWLS LOG ASCII STANDARD - VERSION 2.00
WRAP.                                       NO : MULTIPLE LINES PER DEPTH STEP
VEND.                                  ENVERUS : VENDOR
TYPE.                          ESS - OPEN HOLE : ENVERUS ESSENTIAL CURVES – ACCESSIBLE THROUGH ENVERUS PRISM(TM)
DOC.                                  51094636 : ENVERUS HEADER RAW DOCUMENT ID
#___________________________________________________________________________________________________ 
~WELL INFORMATION 
# FMikr3+JyUztgncWDJlJj4UAVtjFs/xFdFTkOn/rCNZKdsWfgftU4ooQRZEXdd26HCoruynA4NvJdeWU6aB/BQ== 
# MNEM.UNIT                                              DATA : DESCRIPTION OF MNEMONIC 
#-----.-----                    ----------------------------- : ----------------------------- 
CNTY.                                                   IRION : COUNTY 
STATE.                                                  TEXAS : STATE 
CNTRY.                                                    USA : COUNTRY 
API.                                             42-235-34485 : API (10 Digit) 
API_14.                                    42-235-34485-90-00 : API (14 Digits) 
API_14_std.                                 42-235-34485-9000 : API (14 Digits Standard) 
UWI.                                           42235344859000 : UNIQUE WELL ID 
WELL.                                    UNIVERSITY 40-13 #1H : WELL NAME
STRT.FT                                                 187.0 : START DEPTH
STOP.FT                                                7212.0 : STOP DEPTH
STEP.FT                                                   0.5 : STEP BETWEEN DEPTHS
NULL.                                                 -999.25 : NULL VALUE
PREV_UWI.                                        42-235-34485 : API WELLHOLE NUMBER 
COMP.                                     EOG RESOURCES, INC. : COMPANY NAME 
COUN.                                                   IRION : COUNTY 
DAT2.                                                   02000 : LOGGING DATE 2 
DAT3.                                                   02000 : LOGGING DATE 3 
DAT4.                                                   02000 : LOGGING DATE 4 
DATE.                                              2/-1/-2010 : LOGGING DATE 
DFT.                                                    FRESH : DRILLING FLUID TYPE 
DMF.                                                       KB : DRILLING MEASURED 
ENGI.                                              R. ATKISON : ENGINEER 1 NAME 
LOC.                                        660 FNL & 660 FEL : FIELD LOCATION 
FL1.                                        660 FNL & 660 FEL : FIELD LOCATION LINE 1 
FL2.                                        SECT.13, BLOCK 40 : FIELD LOCATION LINE 2 
FLD.                                            LIN  WOLFCAMP : FIELD NAME 
HDAT.                                                   02000 : DATUM 
LMF.                                                       KB : LOG MEASURED FROM 
LUL.                                                   ODESSA : LOGGING UNIT LOCATION 
MCSS.                                                    MEAS : MUD CAKE SAMPLE SOURCE 
MFSS.                                                    MEAS : MUD FILTRATE SAMPLE SOURCE 
MSS.                                                  MUD PIT : SOURCE OF MUD SAMPLE 
OS1.                                             CSNG-DSN-SDL : OTHER SERVICES LINE 1 
OS2.                                                 DLL-MSFL : OTHER SERVICES LINE 2 
PDAT.                                                      GL : PERMANENT DATUM 
R1.             ANNULAR HOLE VOLUME CALCULATED FOR 5.5 INCH CASING. : REMARKS LINE 1 
R2.             LOGGING SCALES AND INTERVALS AS PER CUSTOMER REQUEST. : REMARKS LINE 2 
R3.             GR/CSNG/DSNT/SDLT/WSTT/DLLT/MGRD RAN IN COMBINATION AS SHOWN : REMARKS LINE 3 
RANG.                                                     N/A : RANGE 
RDT2.                                                   02000 : CASING DATE 2 
RDT3.                                                   02000 : CASING DATE 3 
RDT4.                                                   02000 : CASING DATE 4 
RDT5.                                                   02000 : CASING DATE 5 
SECT.                                                     N/A : SECTION 
SON.                                                  7176848 : SERVICE/TICKET ORDER NUMBER 
PROV.                                                   TEXAS : STATE 
TOWN.                                                     N/A : TOWNSHIP 
WITN.                                              GREG PALKO : WITNESS 1 NAME
#___________________________________________________________________________________________________ 
~PARAMETER INFORMATION 
# MNEM.UNIT                                              DATA : DESCRIPTION OF MNEMONIC 
#-----.-----                    ----------------------------- : -----------------------------
#___________________________________________________________________________________________________ 
~CURVE INFORMATION 
# MNEM.UNIT           : CURVE DESCRIPTION 
#-----.-----          : ----------------------------- 
 DEPT.FT               : MEASURED DEPTH 
 DT__E.US/FT           : SONIC DELTA TRANSIT TIME (DTC - DELTA-T COMPRESSIONAL - WAVE SONIC) 
 DTS__E.US/FT          : SHEAR SONIC TRAVEL TIME (SINGLE DIPOLE SONIC - WAVE SONIC) 
 SPHI_LS__E.V/V        : SONIC POROSITY - LIMESTONE (SPHIDTC - SONIC POROSITY MTX=47.6 (DTC)) 
 TENS__E.LBS           : CABLE TENSION (TENSION) 
 #___________________________________________________________________________________________________ 
~A         DEPT          DT__E         DTS__E     SPHI_LS__E        TENS__E
# ...
         4745.0         77.440      134.63120        0.21100      4788.9771
         4745.5         77.146      135.72730        0.20900      4733.1714
         4746.0         77.383      135.87300        0.21060      4738.0781
         4746.5         78.588      135.57300        0.21920      4763.6177
         4747.0         79.924      136.03260        0.22860      4727.9707
         4747.5         81.310      137.65260        0.23840      4696.4746
         4748.0         82.696      139.90750        0.24820      4712.9565
         4748.5         83.245      141.88260        0.25210      4820.8799
         4749.0         82.765      142.32380        0.24870      4741.3950
         4749.5         82.119      142.78110        0.24410      4681.2002
         4750.0         82.087      143.43580        0.24390      4712.6172
         4750.5         82.634      144.19230        0.24780      4770.2515
         4751.0         84.155      147.37900        0.25850      4700.8623
         4751.5         86.530      154.50990        0.27530      4575.8496
         4752.0         88.203      159.55790        0.28720      4534.8662
         4752.5         89.143      163.41210        0.29380      4506.7764
         4753.0         89.641      165.81700        0.29730      4553.1865
         4753.5         89.175      166.42400        0.29400      4655.8979
         4754.0         87.991      164.48910        0.28570      4692.2222
         4754.5         86.655      159.44550        0.27620      4560.3945
         4755.0         85.351      154.41190        0.26700      4575.8716
         4755.5         83.921      150.80260        0.25690      4697.1060
         4756.0         82.782      147.76790        0.24880      4744.5986
         4756.5         82.719      145.46530        0.24840      4628.6543
         4757.0         83.398      144.54370        0.25320      4647.6060
         4757.5         83.779      145.10260        0.25590      4730.1143
         4758.0         83.866      146.99270        0.25650      4645.1470
         4758.5         84.241      148.64310        0.25910      4630.3467
         4759.0         84.929      149.87650        0.26400      4765.5024
         4759.5         85.547      152.55460        0.26840      4749.9570
         4760.0         85.951      155.92310        0.27120      4636.0771
         4760.5         86.551      157.19490        0.27550      4635.4009
         4761.0         87.483      156.21690        0.28210      4595.6689
         4761.5         87.283      154.23330        0.28060      4576.9204
         4762.0         86.317      150.70660        0.27380      4621.2998
         4762.5         86.509      149.32070        0.27520      4583.2383
         4763.0         87.132      149.33290        0.27960      4572.7803
         4763.5         86.945      151.38580        0.27830      4718.5396
         4764.0         86.558      153.78310        0.27550      4679.1812
         4764.5         86.654      154.39560        0.27620      4664.2231
         4765.0         86.394      153.17020        0.27440      4706.9658
         4765.5         84.849      149.64800        0.26340      4822.4253
         4766.0         82.418      144.95700        0.24620      4741.6318
         4766.5         81.046      141.86890        0.23650      4626.7363
         4767.0         81.570      140.61760        0.24020      4710.6548
         4767.5         82.419      141.11890        0.24620      4780.3359
         4768.0         82.463      141.85300        0.24660      4763.3926
         4768.5         82.202      142.89380        0.24470      4724.7559
         4769.0         81.667      143.30050        0.24090      4704.7207
         4769.5         80.770      141.21980        0.23460      4726.6729
         4770.0         80.161      139.60970        0.23030      4711.4438
         4770.5         80.142      138.67020        0.23010      4648.2041
         4771.0         80.533      137.74690        0.23290      4605.3711
         4771.5         80.837      137.31450        0.23510      4583.9937
         4772.0         81.193      136.91630        0.23760      4539.6372
         4772.5         81.547      135.73210        0.24010      4487.2832
         4773.0         80.520      133.73490        0.23280      4606.0479
         4773.5         78.225      131.32440        0.21660      4643.3647
         4774.0         76.281      128.44810        0.20280      4581.2749
         4774.5         74.695      124.93160        0.19160      4549.3618
         4775.0         72.574      122.73770        0.17660      4700.2080
         4775.5         71.063      121.40260        0.16590      4779.8730
         4776.0         70.647      120.30600        0.16300      4735.1226
         4776.5         70.643      120.26390        0.16300      4670.4385
         4777.0         71.606      121.05530        0.16980      4655.3789
         4777.5         73.241      122.47640        0.18130      4690.0225
         4778.0         74.641      123.88200        0.19120      4693.1577
         4778.5         76.376      126.38530        0.20350      4697.9521
         4779.0         79.249      130.36670        0.22380      4702.9390
         4779.5         82.167      133.29690        0.24450      4652.4233
         4780.0         83.804      136.30530        0.25600      4624.1763
         4780.5         83.758      138.60060        0.25570      4683.9082
         4781.0         83.050      139.52070        0.25070      4594.9814
         4781.5         83.158      140.31360        0.25150      4484.7681
         4782.0         83.665      140.05140        0.25510      4529.9707
         4782.5         83.084      138.75920        0.25090      4673.8340
         4783.0         82.108      137.95810        0.24400      4605.4043
         4783.5         81.700      137.69430        0.24120      4593.9438
         4784.0         81.202      137.05040        0.23760      4638.6948
         4784.5         80.431      136.32640        0.23220      4664.0767
         4785.0         79.751      135.69420        0.22740      4673.5186
         4785.5         79.072      134.35680        0.22260      4756.5669
         4786.0         78.267      132.91340        0.21690      4734.4800
         4786.5         77.824      132.62940        0.21370      4706.9097
         4787.0         78.321      133.02820        0.21730      4729.0879
         4787.5         79.348      133.59860        0.22450      4740.0073
         4788.0         80.095      134.39820        0.22980      4726.7520
         4788.5         80.327      135.38250        0.23150      4680.1519
         4789.0         80.219      135.20340        0.23070      4713.9707
         4789.5         79.387      134.44190        0.22480      4691.0601
         4790.0         76.283      133.35560        0.20280      4687.4048
         4790.5         74.190      131.59470        0.18800      4659.2026
         4791.0         74.179      129.77290        0.18800      4605.8218
         4791.5         74.407      127.76080        0.18960      4586.0581
         4792.0         75.671      128.82500        0.19850      4619.0093
         4792.5         78.595      131.74130        0.21920      4637.7241
         4793.0         80.902      134.19480        0.23550      4706.7969
         4793.5         81.826      135.90410        0.24200      4721.8457
         4794.0         82.448      136.88200        0.24640      4700.4683
         4794.5         82.436      136.61950        0.24640      4678.7075
         4795.0         81.638      135.57550        0.24070      4799.0054
         4795.5         80.053      134.33710        0.22950      4799.2656
         4796.0         76.602      132.78890        0.20510      4758.6313
         4796.5         73.814      131.62630        0.18540      4776.5571
         4797.0         73.966      131.92990        0.18650      4813.0161
         4797.5         76.751      134.15550        0.20620      4835.0137
