###############################################
##         ENVERUS                           ##
##         ESS - Open Hole                   ##
##         PERMIAN / MIDLAND                 ##
##         Nov 04 2023  V4.0                 ##
##         42-383-38290-90-00                ##
###############################################
## Copyright 2017-2023  ENVERUS.  All Rights Reserved. 
## Confidential - Property of ENVERUS, use governed by terms and 
## conditions found within the existing Information Services Subscription Agreement 
## (as may be amended, the “ISSA”) between Customer and ENVERUS. 
## 
~VERSION INFORMATION
# MNEM.UNIT                               DATA : DESCRIPTION OF MNEMONIC
#-----.-----     ----------------------------- : -----------------------------
VERS.                                     2.00 : CWLS LOG ASCII STANDARD - VERSION 2.00
WRAP.                                       NO : MULTIPLE LINES PER DEPTH STEP
VEND.                                  ENVERUS : VENDOR
TYPE.                          ESS - OPEN HOLE : ENVERUS ESSENTIAL CURVES – ACCESSIBLE THROUGH ENVERUS PRISM(TM)
DOC.                                  51094660 : ENVERUS HEADER RAW DOCUMENT ID
#___________________________________________________________________________________________________ 
~WELL INFORMATION 
# m1FPRISIcKBcMzk40yd34Gtphn5JoOH7jww50mYGKLfe2DZfACMCifCPsuzsX4y0yEiREccSdbTgxIOvDda2cA== 
# MNEM.UNIT                                              DATA : DESCRIPTION OF MNEMONIC 
#-----.-----                    ----------------------------- : ----------------------------- 
CNTY.                                                  REAGAN : COUNTY 
STATE.                                                  TEXAS : STATE 
CNTRY.                                                    USA : COUNTRY 
API.                                             42-383-38290 : API (10 Digit) 
API_14.                                    42-383-38290-90-00 : API (14 Digits) 
API_14_std.                                 42-383-38290-9000 : API (14 Digits Standard) 
UWI.                                           42383382909000 : UNIQUE WELL ID 
WELL.                                    UNIVERSITY 43-14 #6H : WELL NAME
STRT.FT                                                 900.0 : START DEPTH
STOP.FT                                                7359.0 : STOP DEPTH
STEP.FT                                                   0.5 : STEP BETWEEN DEPTHS
NULL.                                                 -999.25 : NULL VALUE
COMP.                       DEVON ENERGY PRODUCTION CO., L.P. : COMPANY 
FLD.                                           LIN (WOLFCAMP) : FIELD 
LOC.                                       201 FSL & 1115 FWL : LOCATION 
SRVC.                                             BAKER ATLAS : SERVICE COMPANY 
DATE.                                             25-AUG-2013 : LOG DATE 
PREV_APII.                                     42383382900000 : API NUMBER 
PREV_UWI.                                      42383382900000 : UNIQUE WELL ID
#___________________________________________________________________________________________________ 
~PARAMETER INFORMATION 
# MNEM.UNIT                                              DATA : DESCRIPTION OF MNEMONIC 
#-----.-----                    ----------------------------- : ----------------------------- 
HIDE.                                  COMPENSATED Z-DENSILOG : HEADER IDENTIFER 
HID1.                                 COMPENSATED NEUTRON LOG : HEADER IDENTIFER 
HID2.                                      DIGITAL SPECTRALOG : HEADER IDENTIFER 
HID3.                                           GAMMA RAY LOG : HEADER IDENTIFER 
CLAB.                                                  COUNTY : COUNTY LABEL (COMMENTS) 
SLAB.                                                   STATE : STATE LABEL (COMMENTS) 
FILE.                                                 MD10587 : FILE NUMBER 
CMT2.                                             FINAL PRINT : COMMENT 2 
FL1.                                          SEC.14, BLK. 43 : FIELD LOCATION 1 
FL3.                                  UNIVERSITY LAND SURVEY. : FIELD LOCATION 3 
OS2.                                                  HDIL/GR : OTHER SERVICES LINE 2 
OS3.                                                  XMAC/GR : OTHER SERVICES LINE 3 
OS4.                                                      BHP : OTHER SERVICES LINE 4 
PDAT.                                                    G.L. : PERMANENT DATUM 
EPD.FT                                                   2678 : ELEVATION OF PERM. DATUM 
LMF.                                                     K.B. : LOG MEASURED FROM 
APD.FT                                                     25 : ABOVE PERMANENT DATUM 
DMF.                                            KELLY BUSHING : DRILLING MEASURED FROM 
EKB.FT                                                   2703 : ELEVATION OF KELLY BUSHING 
EDF.FT                                                   2702 : ELEVATION OF DERRICK FLOOR 
EGL.FT                                                   2678 : ELEVATION OF GROUND LEVEL 
RUN.                                                        1 : RUN NUMBER 
TRIP.                                                       1 : TRIP NUMBER 
SON.                                                   636509 : SERVICE ORDER NUMBER 
TDD.FT                                                   7363 : TOTAL DEPTH - DRILLER 
TDL.FT                                                   7363 : TOTAL DEPTH - LOGGER 
BLI.FT                                                   7273 : BOTTOM LOG INTERVAL 
TLI.FT                                                    924 : TOP LOG INTERVAL 
CSIZ.IN                                                 9.625 : CASING SIZE 
CBDR.FT                                                   927 : CASING BOTTOM - DRILLER 
CBLO.FT                                                   924 : CASING BOTTOM - LOGGER 
BS.IN                                                    8.75 : BIT SIZE 
DFT.                                            OIL BASED MUD : DRILLING FLUID TYPE 
DFD.LB/G                                                    9 : DRILLING FLUID DENSITY 
DFV.S                                                      20 : DRILLING FLUID VISCOSITY 
MSS.                                                      OBM : MUD SAMPLE SOURCE 
MFSS.                                                      -- : MUD FILTRATE SAMPLE SOURCE 
MCSS.                                                      -- : MUD CAKE SAMPLE SOURCE 
TSC.                                                  7 HOURS : TIME SINCE CIRCULATION 
MRT.DEGF                                                  152 : MAXIMUM RECORDED TEMPERATURE 
LUN.                                                  HL-6713 : LOGGING UNIT NUMBER 
LUL.                                              MIDLAND, TX : LOGGING UNIT LOCATION 
ENGI.                                               O. ROBLES : ENGINEERS NAME 
WITN.                                                W. LUTKE : WITNESS NAME 
TSTR.                                           ZDL/CN/DSL/GR : TITLE SERVICE MNEMONIC 
TSTG.                                                      NA : TITLE SERVICE MNEMONIC 
STUS.                                                   FINAL : STATUS 
LCNM.                                             BAKER ATLAS : LOGGING COMPANY NAME 
LCC.                                                      150 : LOGGING COMPANY CODE 
OPMD.                                                 OH.WIRE : OPERATION MODE 
PANA.                                               O. ROBLES : PROCESSING ANALYST 
PCON.                                             BAKER ATLAS : PROCESSING CONTRACTOR
#___________________________________________________________________________________________________ 
~CURVE INFORMATION 
# MNEM.UNIT           : CURVE DESCRIPTION 
#-----.-----          : ----------------------------- 
 DEPT.FT               : MEASURED DEPTH 
 CALI.IN               : CALIPER (CALX - CALIPER FROM X-AXIS OF XY CALIPER(S)) 
 GR.API                : GAMMA RAY (GAMMA RAY) 
 SGR.API               : SPECTRAL GAMMA RAY (KTH - STRIPPED POTASSIUM-THORIUM) 
 SGR_TH_PPM.PPM        : SPECTRAL GAMMA RAY - THORIUM IN PPM (TH - THORIUM CONCENTRATION) 
 SGR_U_PPM.PPM         : SPECTRAL GAMMA RAY - URANIUM IN PPM (U - URANIUM CONTENT) 
 SP.MV                 : SPONTANEOUS POTENTIAL (SPDH - SPONTANEOUS POTENTIAL PROCESSED IN COMMON REMOTE) 
 DT.US/FT              : SONIC DELTA TRANSIT TIME (DT24 - SLOWNESS OVER 24-INCH INTERVAL) 
 PE.B/E                : PHOTOELECTRIC EFFECT/FACTOR (PHOTO ELECTRIC CROSS-SECTION) 
 RESS_10M2.OHMM        : RESISTIVITY SHALLOW - 10 IN 2 FT VERTICAL (M2R1 - VERTICAL 2-FOOT RESOLUTION MATCHED RESISTIVITY 10-INCH DOI) 
 RESS_20M2.OHMM        : RESISTIVITY SHALLOW - 20 IN 2 FT VERTICAL (M2R2 - VERTICAL 2-FOOT RESOLUTION MATCHED RESISTIVITY 20-INCH DOI) 
 RESM_30M2.OHMM        : RESISTIVITY MEDIUM - 30 IN 2 FT VERTICAL (M2R3 - VERTICAL 2-FOOT RESOLUTION MATCHED RESISTIVITY 30-INCH DOI) 
 RESD_60M2.OHMM        : RESISTIVITY DEEP - 60 IN 2 FT VERTICAL (M2R6 - VERTICAL 2-FOOT RESOLUTION MATCHED RESISTIVITY 60-INCH DOI) 
 RESD_90M2.OHMM        : RESISTIVITY DEEP - 90 IN 2 FT VERTICAL (M2R9 - VERTICAL 2-FOOT RESOLUTION MATCHED RESISTIVITY 90-INCH DOI) 
 RESD_120M2.OHMM       : RESISTIVITY DEEP - 120 IN 2 FT VERTICAL (M2RX - VERTICAL 2-FOOT RESOLUTION MATCHED RESISTIVITY 120-INCH DOI) 
 DPHI.V/V              : DENSITY POROSITY (PORZC - CORRECTED POROSITY) 
 NPHI.V/V              : NEUTRON POROSITY (CNC - BOREHOLE SIZE CORRECTED COMPENSATED NEUTRON POROSITY) 
 SPHI.V/V              : SONIC POROSITY (PORA - ACOUSTIC POROSITY) 
 DRHO.G/CC             : DENSITY CORRECTION (ZCOR - DENSITY CORRECTION) 
 RHOB.G/CC             : BULK DENSITY (ZDNC - BOREHOLE SIZE/MUD WEIGHT CORRECTED DENSITY) 
 TEMP.DEGF             : TEMPERATURE (WTBH - TEMPERATURE OF BOREHOLE) 
 #___________________________________________________________________________________________________ 
~A         DEPT           CALI             GR            SGR     SGR_TH_PPM      SGR_U_PPM             SP             DT             PE      RESS_10M2      RESS_20M2      RESM_30M2      RESD_60M2      RESD_90M2     RESD_120M2           DPHI           NPHI           SPHI           DRHO           RHOB           TEMP
# ...
         4735.0          8.992         76.262         58.130          9.630          2.953        -61.171         74.693         3.2240          9.425          8.921          8.743          8.773          8.906          8.955        0.04862        0.17119        0.19026        0.01400         2.6270        131.454
         4735.5          8.990         76.106         57.054          9.312          3.035        -61.507         73.222         3.3030          8.218          8.261          8.246          8.276          8.371          8.413        0.03845        0.15364        0.17993        0.01300         2.6440        131.571
         4736.0          8.979         79.450         57.901          9.012          3.278        -62.533         74.504         3.2170          6.533          6.850          6.946          6.973          7.065          7.100        0.05245        0.15878        0.18893        0.00900         2.6200        131.629
         4736.5          8.970         79.658         56.012          8.679          3.594        -63.529         77.678         2.9510          5.757          6.201          6.366          6.387          6.486          6.518        0.06639        0.18271        0.21122        0.01000         2.5960        131.646
         4737.0          8.970         85.337         57.753          8.643          4.163        -63.793         82.001         2.7530          5.128          5.585          5.765          5.788          5.885          5.915        0.07192        0.20602        0.24158        0.01400         2.5870        131.798
         4737.5          8.976        100.198         66.142          9.707          4.987        -63.574         86.430         2.8300          4.290          4.647          4.799          4.817          4.902          4.927        0.07597        0.22102        0.27268        0.01600         2.5800        132.079
         4738.0          8.977        113.536         73.787         11.018          5.605        -62.554         89.543         3.1160          3.763          4.001          4.116          4.130          4.206          4.228        0.08523        0.23571        0.29454        0.01400         2.5640        132.044
         4738.5          8.972        116.367         75.635         11.578          5.703        -61.053         90.290         3.3630          3.773          3.906          3.985          4.002          4.075          4.096        0.09592        0.25561        0.29979        0.01000         2.5460        131.449
         4739.0          8.972        112.194         74.047         11.978          5.575        -60.762         89.186         3.3960          4.240          4.256          4.298          4.319          4.397          4.420        0.10032        0.27307        0.29204        0.01000         2.5380        130.783
         4739.5          8.973        109.156         73.383         12.464          5.431        -61.861         87.854         3.2760          4.864          4.736          4.736          4.767          4.855          4.882        0.10134        0.28042        0.28268        0.01200         2.5370        130.736
         4740.0          8.967        111.865         78.467         12.915          5.049        -63.227         87.710         3.1760          5.284          5.009          4.968          5.009          5.098          5.129        0.11087        0.28611        0.28167        0.01000         2.5200        131.084
         4740.5          8.961        118.562         88.403         13.151          4.444        -64.375         89.038         3.1110          5.497          5.143          5.080          5.131          5.215          5.247        0.13019        0.30029        0.29099        0.00500         2.4870        131.160
         4741.0          8.960        122.819         94.705         13.120          4.086        -65.253         90.939         3.0080          5.602          5.257          5.192          5.251          5.330          5.365        0.14634        0.31594        0.30435        0.00200         2.4600        131.067
         4741.5          8.959        121.485         93.947         12.905          4.060        -65.891         92.362         2.9350          5.567          5.294          5.243          5.305          5.376          5.412        0.14899        0.31448        0.31434        0.00500         2.4550        131.351
         4742.0          8.959        118.320         90.486         12.451          4.209        -65.662         92.813         3.0500          5.562          5.360          5.327          5.389          5.453          5.492        0.13949        0.30026        0.31751        0.00900         2.4710        131.888
         4742.5          8.960        117.898         88.207         11.900          4.498        -63.687         92.719         3.2800          5.815          5.654          5.632          5.695          5.759          5.805        0.13054        0.29527        0.31684        0.01100         2.4870        132.313
         4743.0          8.959        121.080         87.598         11.359          4.934        -61.520         92.780         3.3420          6.198          6.058          6.041          6.105          6.172          6.226        0.13536        0.30541        0.31728        0.00500         2.4790        132.429
         4743.5          8.959        125.190         86.840         10.805          5.456        -61.636         93.055         3.2460          6.327          6.214          6.198          6.257          6.324          6.382        0.15030        0.32274        0.31921       -0.00100         2.4530        132.497
         4744.0          8.962        127.504         85.251         10.372          5.878        -63.176         92.674         3.1810          6.142          6.059          6.045          6.096          6.160          6.220        0.16143        0.33320        0.31653       -0.00100         2.4340        132.593
         4744.5          8.966        126.514         82.031         10.148          6.206        -63.780         91.131         3.1850          5.926          5.856          5.845          5.889          5.952          6.013        0.16131        0.33783        0.30570        0.00400         2.4340        132.820
         4745.0          8.970        123.600         77.529         10.046          6.552        -63.396         89.468         3.2690          5.911          5.850          5.842          5.886          5.953          6.016        0.14994        0.33841        0.29402        0.01100         2.4540        132.744
         4745.5          8.969        121.401         73.998         10.030          6.853        -63.751         89.368         3.4580          6.113          6.050          6.045          6.092          6.167          6.234        0.13651        0.32989        0.29331        0.01800         2.4770        132.222
         4746.0          8.965        123.430         73.579         10.307          7.140        -65.431         91.489         3.5520          6.264          6.188          6.181          6.231          6.312          6.383        0.13635        0.31817        0.30821        0.01700         2.4770        131.804
         4746.5          8.963        129.580         76.293         11.040          7.397        -67.113         94.710         3.3890          6.160          6.066          6.053          6.101          6.184          6.253        0.15166        0.32032        0.33083        0.01100         2.4510        131.885
         4747.0          8.957        135.194         79.477         11.659          7.515        -67.648         97.041         3.1410          5.991          5.858          5.837          5.880          5.960          6.024        0.16820        0.33611        0.34720        0.00400         2.4220        131.981
         4747.5          8.946        135.947         80.152         11.899          7.504        -67.698         97.043         2.9910          6.005          5.824          5.792          5.831          5.910          5.971        0.17434        0.33649        0.34721        0.00000         2.4120        131.536
