###############################################
##         ENVERUS                           ##
##         ESS - Open Hole                   ##
##         PERMIAN / MIDLAND                 ##
##         Nov 04 2023  V4.0                 ##
##         42-383-38290-90-00                ##
###############################################
## Copyright 2017-2023  ENVERUS.  All Rights Reserved. 
## Confidential - Property of ENVERUS, use governed by terms and 
## conditions found within the existing Information Services Subscription Agreement 
## (as may be amended, the “ISSA”) between Customer and ENVERUS. 
## 
~VERSION INFORMATION
# MNEM.UNIT                               DATA : DESCRIPTION OF MNEMONIC
#-----.-----     ----------------------------- : -----------------------------
VERS.                                     2.00 : CWLS LOG ASCII STANDARD - VERSION 2.00
WRAP.                                       NO : MULTIPLE LINES PER DEPTH STEP
VEND.                                  ENVERUS : VENDOR
TYPE.                          ESS - OPEN HOLE : ENVERUS ESSENTIAL CURVES – ACCESSIBLE THROUGH ENVERUS PRISM(TM)
DOC.                                  51094660 : ENVERUS HEADER RAW DOCUMENT ID
#___________________________________________________________________________________________________ 
~WELL INFORMATION 
# m1FPRISIcKBcMzk40yd34Gtphn5JoOH7jww50mYGKLfe2DZfACMCifCPsuzsX4y0yEiREccSdbTgxIOvDda2cA== 
# MNEM.UNIT                                              DATA : DESCRIPTION OF MNEMONIC 
#-----.-----                    ----------------------------- : ----------------------------- 
CNTY.                                                  REAGAN : COUNTY 
STATE.                                                  TEXAS : STATE 
CNTRY.                                                    USA : COUNTRY 
API.                                             42-383-38290 : API (10 Digit) 
API_14.                                    42-383-38290-90-00 : API (14 Digits) 
API_14_std.                                 42-383-38290-9000 : API (14 Digits Standard) 
UWI.                                           42383382909000 : UNIQUE WELL ID 
WELL.                                    UNIVERSITY 43-14 #6H : WELL NAME
STRT.FT                                                 900.0 : START DEPTH
STOP.FT                                                7359.0 : STOP DEPTH
STEP.FT                                                   0.5 : STEP BETWEEN DEPTHS
NULL.                                                 -999.25 : NULL VALUE
COMP.                       DEVON ENERGY PRODUCTION CO., L.P. : COMPANY 
FLD.                                           LIN (WOLFCAMP) : FIELD 
LOC.                                       201 FSL & 1115 FWL : LOCATION 
SRVC.                                             BAKER ATLAS : SERVICE COMPANY 
DATE.                                             25-AUG-2013 : LOG DATE 
PREV_APII.                                     42383382900000 : API NUMBER 
PREV_UWI.                                      42383382900000 : UNIQUE WELL ID
#___________________________________________________________________________________________________ 
~PARAMETER INFORMATION 
# MNEM.UNIT                                              DATA : DESCRIPTION OF MNEMONIC 
#-----.-----                    ----------------------------- : ----------------------------- 
HIDE.                                  COMPENSATED Z-DENSILOG : HEADER IDENTIFER 
HID1.                                 COMPENSATED NEUTRON LOG : HEADER IDENTIFER 
HID2.                                      DIGITAL SPECTRALOG : HEADER IDENTIFER 
HID3.                                           GAMMA RAY LOG : HEADER IDENTIFER 
CLAB.                                                  COUNTY : COUNTY LABEL (COMMENTS) 
SLAB.                                                   STATE : STATE LABEL (COMMENTS) 
FILE.                                                 MD10587 : FILE NUMBER 
CMT2.                                             FINAL PRINT : COMMENT 2 
FL1.                                          SEC.14, BLK. 43 : FIELD LOCATION 1 
FL3.                                  UNIVERSITY LAND SURVEY. : FIELD LOCATION 3 
OS2.                                                  HDIL/GR : OTHER SERVICES LINE 2 
OS3.                                                  XMAC/GR : OTHER SERVICES LINE 3 
OS4.                                                      BHP : OTHER SERVICES LINE 4 
PDAT.                                                    G.L. : PERMANENT DATUM 
EPD.FT                                                   2678 : ELEVATION OF PERM. DATUM 
LMF.                                                     K.B. : LOG MEASURED FROM 
APD.FT                                                     25 : ABOVE PERMANENT DATUM 
DMF.                                            KELLY BUSHING : DRILLING MEASURED FROM 
EKB.FT                                                   2703 : ELEVATION OF KELLY BUSHING 
EDF.FT                                                   2702 : ELEVATION OF DERRICK FLOOR 
EGL.FT                                                   2678 : ELEVATION OF GROUND LEVEL 
RUN.                                                        1 : RUN NUMBER 
TRIP.                                                       1 : TRIP NUMBER 
SON.                                                   636509 : SERVICE ORDER NUMBER 
TDD.FT                                                   7363 : TOTAL DEPTH - DRILLER 
TDL.FT                                                   7363 : TOTAL DEPTH - LOGGER 
BLI.FT                                                   7273 : BOTTOM LOG INTERVAL 
TLI.FT                                                    924 : TOP LOG INTERVAL 
CSIZ.IN                                                 9.625 : CASING SIZE 
CBDR.FT                                                   927 : CASING BOTTOM - DRILLER 
CBLO.FT                                                   924 : CASING BOTTOM - LOGGER 
BS.IN                                                    8.75 : BIT SIZE 
DFT.                                            OIL BASED MUD : DRILLING FLUID TYPE 
DFD.LB/G                                                    9 : DRILLING FLUID DENSITY 
DFV.S                                                      20 : DRILLING FLUID VISCOSITY 
MSS.                                                      OBM : MUD SAMPLE SOURCE 
MFSS.                                                      -- : MUD FILTRATE SAMPLE SOURCE 
MCSS.                                                      -- : MUD CAKE SAMPLE SOURCE 
TSC.                                                  7 HOURS : TIME SINCE CIRCULATION 
MRT.DEGF                                                  152 : MAXIMUM RECORDED TEMPERATURE 
LUN.                                                  HL-6713 : LOGGING UNIT NUMBER 
LUL.                                              MIDLAND, TX : LOGGING UNIT LOCATION 
ENGI.                                               O. ROBLES : ENGINEERS NAME 
WITN.                                                W. LUTKE : WITNESS NAME 
TSTR.                                           ZDL/CN/DSL/GR : TITLE SERVICE MNEMONIC 
TSTG.                                                      NA : TITLE SERVICE MNEMONIC 
STUS.                                                   FINAL : STATUS 
LCNM.                                             BAKER ATLAS : LOGGING COMPANY NAME 
LCC.                                                      150 : LOGGING COMPANY CODE 
OPMD.                                                 OH.WIRE : OPERATION MODE 
PANA.                                               O. ROBLES : PROCESSING ANALYST 
PCON.                                             BAKER ATLAS : PROCESSING CONTRACTOR
#___________________________________________________________________________________________________ 
~CURVE INFORMATION 
# MNEM.UNIT           : CURVE DESCRIPTION 
#-----.-----          : ----------------------------- 
 DEPT.FT               : MEASURED DEPTH 
 CALI.IN               : CALIPER (CALX - CALIPER FROM X-AXIS OF XY CALIPER(S)) 
 GR.API                : GAMMA RAY (GAMMA RAY) 
 SGR.API               : SPECTRAL GAMMA RAY (KTH - STRIPPED POTASSIUM-THORIUM) 
 SGR_TH_PPM.PPM        : SPECTRAL GAMMA RAY - THORIUM IN PPM (TH - THORIUM CONCENTRATION) 
 SGR_U_PPM.PPM         : SPECTRAL GAMMA RAY - URANIUM IN PPM (U - URANIUM CONTENT) 
 SP.MV                 : SPONTANEOUS POTENTIAL (SPDH - SPONTANEOUS POTENTIAL PROCESSED IN COMMON REMOTE) 
 DT.US/FT              : SONIC DELTA TRANSIT TIME (DT24 - SLOWNESS OVER 24-INCH INTERVAL) 
 PE.B/E                : PHOTOELECTRIC EFFECT/FACTOR (PHOTO ELECTRIC CROSS-SECTION) 
 RESS_10M2.OHMM        : RESISTIVITY SHALLOW - 10 IN 2 FT VERTICAL (M2R1 - VERTICAL 2-FOOT RESOLUTION MATCHED RESISTIVITY 10-INCH DOI) 
 RESS_20M2.OHMM        : RESISTIVITY SHALLOW - 20 IN 2 FT VERTICAL (M2R2 - VERTICAL 2-FOOT RESOLUTION MATCHED RESISTIVITY 20-INCH DOI) 
 RESM_30M2.OHMM        : RESISTIVITY MEDIUM - 30 IN 2 FT VERTICAL (M2R3 - VERTICAL 2-FOOT RESOLUTION MATCHED RESISTIVITY 30-INCH DOI) 
 RESD_60M2.OHMM        : RESISTIVITY DEEP - 60 IN 2 FT VERTICAL (M2R6 - VERTICAL 2-FOOT RESOLUTION MATCHED RESISTIVITY 60-INCH DOI) 
 RESD_90M2.OHMM        : RESISTIVITY DEEP - 90 IN 2 FT VERTICAL (M2R9 - VERTICAL 2-FOOT RESOLUTION MATCHED RESISTIVITY 90-INCH DOI) 
 RESD_120M2.OHMM       : RESISTIVITY DEEP - 120 IN 2 FT VERTICAL (M2RX - VERTICAL 2-FOOT RESOLUTION MATCHED RESISTIVITY 120-INCH DOI) 
 DPHI.V/V              : DENSITY POROSITY (PORZC - CORRECTED POROSITY) 
 NPHI.V/V              : NEUTRON POROSITY (CNC - BOREHOLE SIZE CORRECTED COMPENSATED NEUTRON POROSITY) 
 SPHI.V/V              : SONIC POROSITY (PORA - ACOUSTIC POROSITY) 
 DRHO.G/CC             : DENSITY CORRECTION (ZCOR - DENSITY CORRECTION) 
 RHOB.G/CC             : BULK DENSITY (ZDNC - BOREHOLE SIZE/MUD WEIGHT CORRECTED DENSITY) 
 TEMP.DEGF             : TEMPERATURE (WTBH - TEMPERATURE OF BOREHOLE) 
 #___________________________________________________________________________________________________ 
~A         DEPT           CALI             GR            SGR     SGR_TH_PPM      SGR_U_PPM             SP             DT             PE      RESS_10M2      RESS_20M2      RESM_30M2      RESD_60M2      RESD_90M2     RESD_120M2           DPHI           NPHI           SPHI           DRHO           RHOB           TEMP
# ...
         4306.0          8.956        104.965         55.365          6.694          7.012        -92.942         83.923         2.7240         11.695         11.808         12.113         12.618         13.042         13.292        0.14111        0.26063        0.25508        0.00200         2.4690        126.943
         4306.5          8.962        109.472         57.237          6.991          7.266        -91.963         83.277         2.7340         13.602         13.669         13.940         14.442         14.904         15.170        0.16248        0.28504        0.25054        0.00100         2.4320        127.202
         4307.0          8.970        107.596         55.494          7.077          7.477        -90.737         82.333         2.9180         15.107         15.242         15.477         15.948         16.431         16.701        0.15793        0.29244        0.24391        0.00600         2.4400        127.444
         4307.5          8.973        106.370         53.990          7.267          7.740        -90.030         82.794         3.1620         13.447         13.771         13.978         14.344         14.768         14.990        0.13520        0.28063        0.24715        0.01600         2.4790        127.486
         4308.0          8.974        113.821         56.705          7.868          8.248        -90.835         85.591         3.1120         10.345         10.758         10.940         11.191         11.517         11.674        0.13104        0.26998        0.26679        0.01600         2.4860        127.577
         4308.5          8.976        124.510         62.497          8.728          8.562        -92.446         89.677         2.8770          8.240          8.614          8.768          8.948          9.204          9.317        0.15633        0.27259        0.29549        0.00500         2.4430        127.818
         4309.0          8.978        127.195         66.041          9.433          8.360        -93.416         92.829         2.7710          7.084          7.370          7.493          7.634          7.848          7.936        0.17624        0.28450        0.31762       -0.00200         2.4090        128.038
         4309.5          8.978        120.397         70.164         11.041          7.181        -92.865         93.734         2.8280          6.454          6.621          6.705          6.825          7.013          7.086        0.17304        0.29276        0.32398        0.00000         2.4140        128.208
         4310.0          8.979        112.035         75.393         13.137          5.578        -90.929         93.008         2.8320          6.348          6.378          6.422          6.535          6.710          6.776        0.15837        0.29071        0.31887        0.00300         2.4390        127.976
         4310.5          8.987        110.085         78.739         13.963          4.856        -89.226         92.245         2.7020          6.806          6.689          6.687          6.804          6.981          7.048        0.14932        0.28226        0.31352        0.00400         2.4550        127.279
         4311.0          9.000        114.707         83.194         13.851          4.699        -89.260         92.419         2.6250          7.471          7.209          7.165          7.307          7.499          7.571        0.14887        0.27562        0.31474        0.00400         2.4550        126.863
         4311.5          9.006        118.603         86.160         13.455          4.678        -90.415         93.125         2.6870          7.611          7.241          7.166          7.317          7.499          7.575        0.15268        0.27232        0.31970        0.00500         2.4490        127.180
         4312.0          8.998        117.005         82.900         12.712          4.943        -90.965         93.283         2.7560          7.303          6.905          6.822          6.969          7.121          7.191        0.15816        0.27497        0.32081        0.00500         2.4400        127.794
         4312.5          8.975        113.723         75.565         11.462          5.587        -90.486         92.181         2.7140          7.638          7.176          7.084          7.250          7.393          7.470        0.16323        0.28394        0.31307        0.00500         2.4310        128.437
         4313.0          8.954        111.801         67.932         10.108          6.386        -89.664         90.046         2.5980          9.441          8.752          8.614          8.858          9.034          9.146        0.16432        0.28576        0.29808        0.00700         2.4290        128.672
         4313.5          8.951        109.446         61.133          9.146          7.057        -89.661         87.799         2.4640         12.655         11.513         11.278         11.682         11.924         12.115        0.15738        0.27604        0.28230        0.01100         2.4410        128.248
         4314.0          8.957        107.720         56.392          8.572          7.537        -90.097         86.265         2.3740         14.839         13.365         13.057         13.564         13.820         14.072        0.14396        0.26468        0.27152        0.01600         2.4640        127.439
         4314.5          8.958        109.577         54.755          8.252          7.850        -89.829         85.586         2.4300         15.239         13.769         13.461         13.962         14.183         14.455        0.13849        0.25820        0.26676        0.01700         2.4730        126.822
         4315.0          8.960        112.832         55.097          8.136          7.963        -89.167         85.283         2.6130         15.700         14.248         13.926         14.422         14.630         14.940        0.14850        0.26026        0.26463        0.01000         2.4560        126.475
         4315.5          8.965        112.799         55.382          8.187          7.853        -88.885         84.680         2.7650         15.221         13.989         13.680         14.121         14.310         14.634        0.15725        0.26247        0.26039        0.00400         2.4410        126.155
         4316.0          8.970        109.474         55.310          8.362          7.523        -88.937         83.218         2.7940         13.550         12.627         12.366         12.699         12.854         13.139        0.15154        0.25358        0.25013        0.00500         2.4510        125.893
         4316.5          8.974        105.977         55.670          8.598          7.034        -89.498         80.682         2.7820         13.233         12.354         12.093         12.391         12.545         12.833        0.13867        0.24692        0.23232        0.00800         2.4730        126.026
         4317.0          8.976        100.272         54.346          8.825          6.499        -90.880         77.570         2.8840         15.566         14.383         14.033         14.424         14.648         15.052        0.12181        0.25193        0.21046        0.01000         2.5020        126.473
         4317.5          8.974         90.196         49.964          9.042          6.044        -92.330         75.214         3.1570         19.173         17.536         17.047         17.630         17.996         18.615        0.09382        0.24899        0.19392        0.01500         2.5500        126.961
         4318.0          8.971         83.931         46.945          9.153          5.859        -92.781         75.129         3.2780         18.111         16.831         16.445         17.017         17.409         18.007        0.06814        0.23182        0.19332        0.01900         2.5930        127.465
         4318.5          8.969         89.856         51.280          9.469          5.889        -92.195         77.899         3.0120         13.946         13.232         13.040         13.432         13.718         14.114        0.07576        0.22685        0.21278        0.01100         2.5800        127.784
