###############################################
##         ENVERUS                           ##
##         ESS - Open Hole                   ##
##         PERMIAN / MIDLAND                 ##
##         Nov 04 2023  V4.0                 ##
##         42-383-38290-90-00                ##
###############################################
## Copyright 2017-2023  ENVERUS.  All Rights Reserved. 
## Confidential - Property of ENVERUS, use governed by terms and 
## conditions found within the existing Information Services Subscription Agreement 
## (as may be amended, the “ISSA”) between Customer and ENVERUS. 
## 
~VERSION INFORMATION
# MNEM.UNIT                               DATA : DESCRIPTION OF MNEMONIC
#-----.-----     ----------------------------- : -----------------------------
VERS.                                     2.00 : CWLS LOG ASCII STANDARD - VERSION 2.00
WRAP.                                       NO : MULTIPLE LINES PER DEPTH STEP
VEND.                                  ENVERUS : VENDOR
TYPE.                          ESS - OPEN HOLE : ENVERUS ESSENTIAL CURVES – ACCESSIBLE THROUGH ENVERUS PRISM(TM)
DOC.                                  51094660 : ENVERUS HEADER RAW DOCUMENT ID
#___________________________________________________________________________________________________ 
~WELL INFORMATION 
# m1FPRISIcKBcMzk40yd34Gtphn5JoOH7jww50mYGKLfe2DZfACMCifCPsuzsX4y0yEiREccSdbTgxIOvDda2cA== 
# MNEM.UNIT                                              DATA : DESCRIPTION OF MNEMONIC 
#-----.-----                    ----------------------------- : ----------------------------- 
CNTY.                                                  REAGAN : COUNTY 
STATE.                                                  TEXAS : STATE 
CNTRY.                                                    USA : COUNTRY 
API.                                             42-383-38290 : API (10 Digit) 
API_14.                                    42-383-38290-90-00 : API (14 Digits) 
API_14_std.                                 42-383-38290-9000 : API (14 Digits Standard) 
UWI.                                           42383382909000 : UNIQUE WELL ID 
WELL.                                    UNIVERSITY 43-14 #6H : WELL NAME
STRT.FT                                                 900.0 : START DEPTH
STOP.FT                                                7359.0 : STOP DEPTH
STEP.FT                                                   0.5 : STEP BETWEEN DEPTHS
NULL.                                                 -999.25 : NULL VALUE
COMP.                       DEVON ENERGY PRODUCTION CO., L.P. : COMPANY 
FLD.                                           LIN (WOLFCAMP) : FIELD 
LOC.                                       201 FSL & 1115 FWL : LOCATION 
SRVC.                                             BAKER ATLAS : SERVICE COMPANY 
DATE.                                             25-AUG-2013 : LOG DATE 
PREV_APII.                                     42383382900000 : API NUMBER 
PREV_UWI.                                      42383382900000 : UNIQUE WELL ID
#___________________________________________________________________________________________________ 
~PARAMETER INFORMATION 
# MNEM.UNIT                                              DATA : DESCRIPTION OF MNEMONIC 
#-----.-----                    ----------------------------- : ----------------------------- 
HIDE.                                  COMPENSATED Z-DENSILOG : HEADER IDENTIFER 
HID1.                                 COMPENSATED NEUTRON LOG : HEADER IDENTIFER 
HID2.                                      DIGITAL SPECTRALOG : HEADER IDENTIFER 
HID3.                                           GAMMA RAY LOG : HEADER IDENTIFER 
CLAB.                                                  COUNTY : COUNTY LABEL (COMMENTS) 
SLAB.                                                   STATE : STATE LABEL (COMMENTS) 
FILE.                                                 MD10587 : FILE NUMBER 
CMT2.                                             FINAL PRINT : COMMENT 2 
FL1.                                          SEC.14, BLK. 43 : FIELD LOCATION 1 
FL3.                                  UNIVERSITY LAND SURVEY. : FIELD LOCATION 3 
OS2.                                                  HDIL/GR : OTHER SERVICES LINE 2 
OS3.                                                  XMAC/GR : OTHER SERVICES LINE 3 
OS4.                                                      BHP : OTHER SERVICES LINE 4 
PDAT.                                                    G.L. : PERMANENT DATUM 
EPD.FT                                                   2678 : ELEVATION OF PERM. DATUM 
LMF.                                                     K.B. : LOG MEASURED FROM 
APD.FT                                                     25 : ABOVE PERMANENT DATUM 
DMF.                                            KELLY BUSHING : DRILLING MEASURED FROM 
EKB.FT                                                   2703 : ELEVATION OF KELLY BUSHING 
EDF.FT                                                   2702 : ELEVATION OF DERRICK FLOOR 
EGL.FT                                                   2678 : ELEVATION OF GROUND LEVEL 
RUN.                                                        1 : RUN NUMBER 
TRIP.                                                       1 : TRIP NUMBER 
SON.                                                   636509 : SERVICE ORDER NUMBER 
TDD.FT                                                   7363 : TOTAL DEPTH - DRILLER 
TDL.FT                                                   7363 : TOTAL DEPTH - LOGGER 
BLI.FT                                                   7273 : BOTTOM LOG INTERVAL 
TLI.FT                                                    924 : TOP LOG INTERVAL 
CSIZ.IN                                                 9.625 : CASING SIZE 
CBDR.FT                                                   927 : CASING BOTTOM - DRILLER 
CBLO.FT                                                   924 : CASING BOTTOM - LOGGER 
BS.IN                                                    8.75 : BIT SIZE 
DFT.                                            OIL BASED MUD : DRILLING FLUID TYPE 
DFD.LB/G                                                    9 : DRILLING FLUID DENSITY 
DFV.S                                                      20 : DRILLING FLUID VISCOSITY 
MSS.                                                      OBM : MUD SAMPLE SOURCE 
MFSS.                                                      -- : MUD FILTRATE SAMPLE SOURCE 
MCSS.                                                      -- : MUD CAKE SAMPLE SOURCE 
TSC.                                                  7 HOURS : TIME SINCE CIRCULATION 
MRT.DEGF                                                  152 : MAXIMUM RECORDED TEMPERATURE 
LUN.                                                  HL-6713 : LOGGING UNIT NUMBER 
LUL.                                              MIDLAND, TX : LOGGING UNIT LOCATION 
ENGI.                                               O. ROBLES : ENGINEERS NAME 
WITN.                                                W. LUTKE : WITNESS NAME 
TSTR.                                           ZDL/CN/DSL/GR : TITLE SERVICE MNEMONIC 
TSTG.                                                      NA : TITLE SERVICE MNEMONIC 
STUS.                                                   FINAL : STATUS 
LCNM.                                             BAKER ATLAS : LOGGING COMPANY NAME 
LCC.                                                      150 : LOGGING COMPANY CODE 
OPMD.                                                 OH.WIRE : OPERATION MODE 
PANA.                                               O. ROBLES : PROCESSING ANALYST 
PCON.                                             BAKER ATLAS : PROCESSING CONTRACTOR
#___________________________________________________________________________________________________ 
~CURVE INFORMATION 
# MNEM.UNIT           : CURVE DESCRIPTION 
#-----.-----          : ----------------------------- 
 DEPT.FT               : MEASURED DEPTH 
 CALI.IN               : CALIPER (CALX - CALIPER FROM X-AXIS OF XY CALIPER(S)) 
 GR.API                : GAMMA RAY (GAMMA RAY) 
 SGR.API               : SPECTRAL GAMMA RAY (KTH - STRIPPED POTASSIUM-THORIUM) 
 SGR_TH_PPM.PPM        : SPECTRAL GAMMA RAY - THORIUM IN PPM (TH - THORIUM CONCENTRATION) 
 SGR_U_PPM.PPM         : SPECTRAL GAMMA RAY - URANIUM IN PPM (U - URANIUM CONTENT) 
 SP.MV                 : SPONTANEOUS POTENTIAL (SPDH - SPONTANEOUS POTENTIAL PROCESSED IN COMMON REMOTE) 
 DT.US/FT              : SONIC DELTA TRANSIT TIME (DT24 - SLOWNESS OVER 24-INCH INTERVAL) 
 PE.B/E                : PHOTOELECTRIC EFFECT/FACTOR (PHOTO ELECTRIC CROSS-SECTION) 
 RESS_10M2.OHMM        : RESISTIVITY SHALLOW - 10 IN 2 FT VERTICAL (M2R1 - VERTICAL 2-FOOT RESOLUTION MATCHED RESISTIVITY 10-INCH DOI) 
 RESS_20M2.OHMM        : RESISTIVITY SHALLOW - 20 IN 2 FT VERTICAL (M2R2 - VERTICAL 2-FOOT RESOLUTION MATCHED RESISTIVITY 20-INCH DOI) 
 RESM_30M2.OHMM        : RESISTIVITY MEDIUM - 30 IN 2 FT VERTICAL (M2R3 - VERTICAL 2-FOOT RESOLUTION MATCHED RESISTIVITY 30-INCH DOI) 
 RESD_60M2.OHMM        : RESISTIVITY DEEP - 60 IN 2 FT VERTICAL (M2R6 - VERTICAL 2-FOOT RESOLUTION MATCHED RESISTIVITY 60-INCH DOI) 
 RESD_90M2.OHMM        : RESISTIVITY DEEP - 90 IN 2 FT VERTICAL (M2R9 - VERTICAL 2-FOOT RESOLUTION MATCHED RESISTIVITY 90-INCH DOI) 
 RESD_120M2.OHMM       : RESISTIVITY DEEP - 120 IN 2 FT VERTICAL (M2RX - VERTICAL 2-FOOT RESOLUTION MATCHED RESISTIVITY 120-INCH DOI) 
 DPHI.V/V              : DENSITY POROSITY (PORZC - CORRECTED POROSITY) 
 NPHI.V/V              : NEUTRON POROSITY (CNC - BOREHOLE SIZE CORRECTED COMPENSATED NEUTRON POROSITY) 
 SPHI.V/V              : SONIC POROSITY (PORA - ACOUSTIC POROSITY) 
 DRHO.G/CC             : DENSITY CORRECTION (ZCOR - DENSITY CORRECTION) 
 RHOB.G/CC             : BULK DENSITY (ZDNC - BOREHOLE SIZE/MUD WEIGHT CORRECTED DENSITY) 
 TEMP.DEGF             : TEMPERATURE (WTBH - TEMPERATURE OF BOREHOLE) 
 #___________________________________________________________________________________________________ 
~A         DEPT           CALI             GR            SGR     SGR_TH_PPM      SGR_U_PPM             SP             DT             PE      RESS_10M2      RESS_20M2      RESM_30M2      RESD_60M2      RESD_90M2     RESD_120M2           DPHI           NPHI           SPHI           DRHO           RHOB           TEMP
# ...
         2174.0          9.016          9.802          7.009          0.706          0.460        -96.857         48.282         4.1600       1830.445       1811.883       1613.368       1347.238       1299.476       1274.810       -0.04198        0.12745        0.00479        0.00100         2.7820        101.942
         2174.5          9.010          9.604          6.863          0.587          0.447        -98.736         48.017         4.1030       1730.891       1723.698       1604.213       1410.040       1382.548       1365.631       -0.04958        0.13273        0.00293       -0.00300         2.7950        101.964
         2175.0          9.019          9.724          6.991          0.530          0.434       -100.637         47.871         3.9610       1677.979       1668.535       1608.200       1446.148       1425.245       1410.226       -0.04310        0.13706        0.00191       -0.00800         2.7840        101.864
         2175.5          9.032         10.212          7.503          0.571          0.413       -101.048         47.986         3.8470       1586.247       1580.745       1559.826       1430.436       1413.370       1399.732       -0.02420        0.14163        0.00271       -0.01200         2.7510        101.644
         2176.0          9.029         10.509          8.166          0.754          0.358       -100.717         48.331         3.7890       1466.843       1466.842       1466.299       1376.630       1363.540       1352.665       -0.00543        0.15006        0.00513       -0.01200         2.7190        101.595
         2176.5          9.019         10.221          8.575          1.027          0.274       -100.439         48.737         3.6650       1368.245       1368.245       1368.245       1319.829       1310.222       1302.396        0.00510        0.15663        0.00799       -0.00900         2.7010        101.859
         2177.0          9.016          9.799          8.773          1.302          0.197       -100.191         48.961         3.4770       1288.162       1288.162       1288.162       1269.046       1264.079       1260.270        0.00990        0.15935        0.00956       -0.00500         2.6930        101.973
         2177.5          9.015          9.910          9.409          1.553          0.119       -100.124         48.860         3.3960       1249.586       1249.586       1249.586       1240.922       1240.242       1239.761        0.01239        0.16098        0.00884       -0.00400         2.6890        101.675
         2178.0          9.013         10.662         10.861          1.795          0.012       -100.168         48.522         3.4130       1354.118       1354.118       1354.118       1316.515       1300.320       1289.927        0.01328        0.15944        0.00647       -0.00200         2.6870        101.387
         2178.5          9.009         11.982         12.270          1.911          0.002       -100.329         48.173         3.3930       1541.146       1541.146       1541.146       1436.764       1388.068       1359.565        0.01231        0.15425        0.00402        0.00100         2.6890        101.584
         2179.0          9.001         13.313         13.614          1.838          0.002       -100.932         47.994         3.3690       1648.187       1648.187       1635.996       1474.567       1408.101       1371.512        0.00751        0.14968        0.00277        0.00600         2.6970        102.042
         2179.5          8.992         13.930         13.381          1.703          0.127       -101.644         47.985         3.4000       1681.702       1681.702       1623.733       1440.078       1369.045       1331.030       -0.00173        0.14336        0.00270        0.00900         2.7130        102.219
         2180.0          9.001         14.230         12.517          1.537          0.307       -101.881         48.026         3.4790       1734.322       1734.322       1583.445       1363.457       1287.182       1246.361       -0.01662        0.13429        0.00299        0.01100         2.7380        101.986
         2180.5          9.024         15.648         11.176          1.221          0.721       -101.770         48.048         3.5890       1940.254       1940.254       1609.267       1276.154       1161.909       1100.225       -0.03633        0.12533        0.00315        0.01300         2.7720        101.653
         2181.0          9.034         19.478          8.892          0.783          1.583       -101.549         48.122         3.6450       2732.342       2732.343       1983.158       1275.322       1048.946        930.243       -0.05088        0.12036        0.00367        0.01500         2.7970        101.409
         2181.5          9.026         25.937          8.194          0.682          2.473       -101.218         48.401         3.5470       3747.808       3747.810       2453.041       1209.373        854.061        780.781       -0.04613        0.12250        0.00563        0.01400         2.7890        101.298
         2182.0          9.016         32.160         10.392          1.004          2.795       -100.600         49.066         3.3810       3949.242       3949.244       2187.547        859.550        508.968        626.221       -0.02370        0.13262        0.01029        0.00900         2.7510        101.405
         2182.5          9.015         34.299         12.445          1.267          2.716        -99.723         50.241         3.2660        530.345        486.495        547.857        367.482        327.784        411.049       -0.00040        0.14681        0.01855        0.00500         2.7110        101.691
         2183.0          9.018         31.921         13.494          1.442          2.474        -99.253         51.842         3.2420        128.098        135.879        149.997        159.529        169.750        201.462        0.01170        0.15732        0.02979        0.00400         2.6900        101.865
         2183.5          9.018         29.008         14.651          1.605          2.126        -99.246         53.468         3.2380         55.241         59.635         65.096         74.250         82.083         94.886        0.01292        0.15778        0.04121        0.00500         2.6880        101.960
         2184.0          9.016         28.692         16.309          1.638          1.840        -99.301         54.599         3.1800         30.687         32.976         35.564         40.735         45.040         51.301        0.01266        0.15182        0.04915        0.00700         2.6880        102.172
         2184.5          9.011         29.244         18.239          1.638          1.596        -99.859         54.984         3.1710         20.991         22.390         23.924         26.988         29.858         33.680        0.01692        0.14879        0.05186        0.00700         2.6810        102.237
         2185.0          9.006         28.223         19.212          1.642          1.362       -101.157         54.900         3.2990         16.400         17.446         18.555         20.716         22.863         25.623        0.02088        0.15148        0.05126        0.00600         2.6740        101.952
         2185.5          9.010         27.298         19.723          1.649          1.198       -102.859         55.034         3.4310         13.584         14.493         15.406         17.122         18.864         21.060        0.01658        0.15200        0.05220        0.00600         2.6820        101.887
         2186.0          9.019         28.398         21.610          1.798          1.067       -104.438         56.021         3.4300         11.366         12.228         13.042         14.501         15.977         17.811        0.00504        0.14856        0.05914        0.00700         2.7010        102.359
         2186.5          9.015         31.423         24.944          2.166          1.010       -105.258         58.048         3.3830          9.507         10.356         11.122         12.425         13.717         15.303       -0.00144        0.14738        0.07337        0.00700         2.7120        102.581
